priority_rank,name,county,town,lat,lon,risk_score,risk_level,rain_24h_mm_demo,elevation_m,slope_deg,aspect_deg,aspect_dir,aspect_score,terrain_score,debris_dist_m,debris_Risk,lswarn_dist_m,lswarn_Risk,lspot_dist_m,lspot_Risk,event_dist_m,event_Events,law_status,law_issue,indigenous_area,data_confidence,suggested_action,alert_message
1,阿里山有機小農露營區,嘉義縣,阿里山鄉,23.4714423304652,120.703766895337,81.1,立即撤離,240.89932105349013,1295.06,24.47,214.5,西南,21.3,52.4,240.71686816526628,雿,0.0,擃,0.0,高,2021.307459903836,0728豪雨,違反相關法規露營場,違反區域計畫法,是,高,啟動撤離與人員清點，避免夜間或豪雨中移動，優先確認聯外道路是否受阻。,【露營安全預警】嘉義縣阿里山鄉「阿里山有機小農露營區」目前評估為「立即撤離」。主因：雨量偏高 241 mm/24h、距土石流影響範圍 241 m、鄰近崩塌/警戒範圍、法規狀態需注意。請營主立即通知遊客，確認人員、車輛與聯外道路狀況，必要時依地方政府指示提前撤離。
2,高美休閒營區,嘉義縣,阿里山鄉,23.4712778484997,120.705720266223,79.8,預警撤離,230.76529532687687,1314.94,32.09,187.1,南,44.1,72.3,432.30529593099794,雿,0.0,擃,0.0,高,1833.1914548058307,0728豪雨,違反相關法規露營場,違反區域計畫法,是,高,通知營主與遊客準備撤離，檢查車輛動線與備用避難點，雨勢增強即提前離場。,【露營安全預警】嘉義縣阿里山鄉「高美休閒營區」目前評估為「預警撤離」。主因：雨量偏高 231 mm/24h、DEM坡度 32°、距土石流影響範圍 432 m、鄰近崩塌/警戒範圍、法規狀態需注意。請營主立即通知遊客，確認人員、車輛與聯外道路狀況，必要時依地方政府指示提前撤離。
3,能通農場露營區,南投縣,鹿谷鄉,23.70349,120.77368,79.3,預警撤離,211.4794915982011,780.63,9.15,78.8,東,50.1,28.9,0.0,擃,0.0,擃,477.6121408144436,高,4972.169511656639,丹娜絲颱風、薇帕颱風、0721豪雨,違反相關法規露營場,區域計畫法,否,高,通知營主與遊客準備撤離，檢查車輛動線與備用避難點，雨勢增強即提前離場。,【露營安全預警】南投縣鹿谷鄉「能通農場露營區」目前評估為「預警撤離」。主因：雨量偏高 211 mm/24h、距土石流影響範圍 0 m、鄰近崩塌/警戒範圍、法規狀態需注意。請營主立即通知遊客，確認人員、車輛與聯外道路狀況，必要時依地方政府指示提前撤離。
4,迎客山,苗栗縣,大湖鄉,24.40994,120.90374,78.7,預警撤離,193.1196976979686,409.13,23.2,302.3,西北,0.0,45.2,91.8816769901005,銝,0.0,銝,0.0,中,6588.82703267785,0728豪雨,違反相關法規露營場,區域計畫法,否,高,通知營主與遊客準備撤離，檢查車輛動線與備用避難點，雨勢增強即提前離場。,【露營安全預警】苗栗縣大湖鄉「迎客山」目前評估為「預警撤離」。主因：距土石流影響範圍 92 m、鄰近崩塌/警戒範圍、法規狀態需注意。請營主立即通知遊客，確認人員、車輛與聯外道路狀況，必要時依地方政府指示提前撤離。
5,一線天,苗栗縣,泰安鄉,24.389673,120.922098,77.7,預警撤離,186.03302933421836,585.56,28.93,18.3,北,15.2,59.8,207.37103444083607,擃,0.0,擃,0.0,高,4496.347458690213,0728豪雨,違反相關法規露營場,不符合土地管制法規,是,高,通知營主與遊客準備撤離，檢查車輛動線與備用避難點，雨勢增強即提前離場。,【露營安全預警】苗栗縣泰安鄉「一線天」目前評估為「預警撤離」。主因：距土石流影響範圍 207 m、鄰近崩塌/警戒範圍、法規狀態需注意。請營主立即通知遊客，確認人員、車輛與聯外道路狀況，必要時依地方政府指示提前撤離。
6,亞日兒山莊露營區,臺東縣,金峰鄉,22.631161,121.000187,76.3,預警撤離,188.76610918724916,132.08,16.11,137.1,東南,85.8,50.3,173.58045015150674,銝,0.0,擃,0.0,高,7688.971245727297,0728豪雨,違反相關法規露營場,區域計畫法,是,高,通知營主與遊客準備撤離，檢查車輛動線與備用避難點，雨勢增強即提前離場。,【露營安全預警】臺東縣金峰鄉「亞日兒山莊露營區」目前評估為「預警撤離」。主因：坡向 東南，迎風暴露較高、距土石流影響範圍 174 m、鄰近崩塌/警戒範圍、法規狀態需注意。請營主立即通知遊客，確認人員、車輛與聯外道路狀況，必要時依地方政府指示提前撤離。
7,雲朵朵露營區,苗栗縣,泰安鄉,24.442494,120.926523,74.8,預警撤離,184.05658651495247,436.41,19.41,174.5,南,54.6,49.9,0.0,雿,231.84845226572628,銝,231.83984027997903,中,8840.603539286909,0728豪雨,違反相關法規露營場,區域計畫法,是,高,通知營主與遊客準備撤離，檢查車輛動線與備用避難點，雨勢增強即提前離場。,【露營安全預警】苗栗縣泰安鄉「雲朵朵露營區」目前評估為「預警撤離」。主因：距土石流影響範圍 0 m、鄰近崩塌/警戒範圍、法規狀態需注意。請營主立即通知遊客，確認人員、車輛與聯外道路狀況，必要時依地方政府指示提前撤離。
8,磯崎好聚落高山森林基地,花蓮縣,豐濱鄉,23.6845423410882,121.546855866409,73.1,預警撤離,199.14474916917604,55.77,16.99,147.8,東南,76.8,50.0,343.8335303388946,雿,0.0,擃,41.692783224876784,高,1513.3966282664037,樺加沙颱風,違反相關法規露營場,區域計畫法,是,高,通知營主與遊客準備撤離，檢查車輛動線與備用避難點，雨勢增強即提前離場。,【露營安全預警】花蓮縣豐濱鄉「磯崎好聚落高山森林基地」目前評估為「預警撤離」。主因：坡向 東南，迎風暴露較高、距土石流影響範圍 344 m、鄰近崩塌/警戒範圍、法規狀態需注意。請營主立即通知遊客，確認人員、車輛與聯外道路狀況，必要時依地方政府指示提前撤離。
9,瑪都安露營區,苗栗縣,泰安鄉,24.4404606550413,120.925848777579,73.1,預警撤離,189.5637769266607,409.71,19.67,351.2,北,0.0,38.4,0.0,擃,127.54560278953448,銝,258.26715742625487,中,8976.077225153325,0728豪雨,違反相關法規露營場,待清查,是,高,通知營主與遊客準備撤離，檢查車輛動線與備用避難點，雨勢增強即提前離場。,【露營安全預警】苗栗縣泰安鄉「瑪都安露營區」目前評估為「預警撤離」。主因：距土石流影響範圍 0 m、鄰近崩塌/警戒範圍、法規狀態需注意。請營主立即通知遊客，確認人員、車輛與聯外道路狀況，必要時依地方政府指示提前撤離。
10,司卡尤納露營區,臺中市,和平區,24.327756,120.926215,72.7,預警撤離,213.48512831073188,654.12,21.06,296.8,西北,0.0,41.1,265.33805725179934,銝,0.0,擃,0.0,高,1959.8011121427865,0728豪雨,違反相關法規露營場,區域計畫法,是,高,通知營主與遊客準備撤離，檢查車輛動線與備用避難點，雨勢增強即提前離場。,【露營安全預警】臺中市和平區「司卡尤納露營區」目前評估為「預警撤離」。主因：雨量偏高 213 mm/24h、距土石流影響範圍 265 m、鄰近崩塌/警戒範圍、法規狀態需注意。請營主立即通知遊客，確認人員、車輛與聯外道路狀況，必要時依地方政府指示提前撤離。
11,一遊味境親子露營區,苗栗縣,大湖鄉,24.4121029194378,120.900526059128,72.7,預警撤離,188.27972454306584,361.64,15.79,273.1,西,0.0,30.8,121.04324664831768,銝,0.0,銝,303.9141675419896,中,6862.862638067725,0728豪雨,違反相關法規露營場,不符合土地管制法規,否,高,通知營主與遊客準備撤離，檢查車輛動線與備用避難點，雨勢增強即提前離場。,【露營安全預警】苗栗縣大湖鄉「一遊味境親子露營區」目前評估為「預警撤離」。主因：距土石流影響範圍 121 m、鄰近崩塌/警戒範圍、法規狀態需注意。請營主立即通知遊客，確認人員、車輛與聯外道路狀況，必要時依地方政府指示提前撤離。
12,溪頭和興露營區,南投縣,鹿谷鄉,23.6934557,120.772595,71.5,預警撤離,239.48599551909032,982.99,25.76,333.9,西北,0.0,50.2,965.706240152289,擃,0.0,銝,0.0,中,4490.060187685767,0728豪雨,違反相關法規露營場,區域計畫法,否,高,通知營主與遊客準備撤離，檢查車輛動線與備用避難點，雨勢增強即提前離場。,【露營安全預警】南投縣鹿谷鄉「溪頭和興露營區」目前評估為「預警撤離」。主因：雨量偏高 239 mm/24h、鄰近崩塌/警戒範圍、法規狀態需注意。請營主立即通知遊客，確認人員、車輛與聯外道路狀況，必要時依地方政府指示提前撤離。
13,歐敏露營區(原酋長茅蘆露營區),南投縣,仁愛鄉,24.023568,121.1903066,71.4,預警撤離,218.301728519266,1126.77,27.01,346.5,北,0.0,52.7,28.741058580994704,擃,367.74962043592046,擃,607.1308466521691,高,3562.5305092574745,丹娜絲颱風、薇帕颱風、0721豪雨,違反相關法規露營場,未提出露營場申請,是,高,通知營主與遊客準備撤離，檢查車輛動線與備用避難點，雨勢增強即提前離場。,【露營安全預警】南投縣仁愛鄉「歐敏露營區(原酋長茅蘆露營區)」目前評估為「預警撤離」。主因：雨量偏高 218 mm/24h、距土石流影響範圍 29 m、鄰近崩塌/警戒範圍、法規狀態需注意。請營主立即通知遊客，確認人員、車輛與聯外道路狀況，必要時依地方政府指示提前撤離。
14,禾森 Ichigo 露營區,苗栗縣,大湖鄉,24.417942,120.899415,70.8,預警撤離,172.99989099761228,348.79,6.66,288.8,西,0.0,13.0,0.0,擃,41.77065719123277,銝,868.8940498319162,中,7518.82156544181,0728豪雨,違反相關法規露營場,不符合土地管制法規,否,高,通知營主與遊客準備撤離，檢查車輛動線與備用避難點，雨勢增強即提前離場。,【露營安全預警】苗栗縣大湖鄉「禾森 Ichigo 露營區」目前評估為「預警撤離」。主因：距土石流影響範圍 0 m、鄰近崩塌/警戒範圍、法規狀態需注意。請營主立即通知遊客，確認人員、車輛與聯外道路狀況，必要時依地方政府指示提前撤離。
15,山樂園露營區（一起鄒咖啡店）,嘉義縣,阿里山鄉,23.472693957739,120.704897426077,70.6,預警撤離,238.66654004606264,1365.06,8.44,231.5,西南,5.0,17.6,400.8900831284488,雿,0.0,擃,0.0,高,1980.916026830481,0728豪雨,違反相關法規露營場,違反區域計畫法,是,高,通知營主與遊客準備撤離，檢查車輛動線與備用避難點，雨勢增強即提前離場。,【露營安全預警】嘉義縣阿里山鄉「山樂園露營區（一起鄒咖啡店）」目前評估為「預警撤離」。主因：雨量偏高 239 mm/24h、距土石流影響範圍 401 m、鄰近崩塌/警戒範圍、法規狀態需注意。請營主立即通知遊客，確認人員、車輛與聯外道路狀況，必要時依地方政府指示提前撤離。
16,豐之優露營區,苗栗縣,泰安鄉,24.444507,120.922811,70.3,預警撤離,189.49113640435337,560.29,18.53,223.1,西南,14.1,39.2,368.0706789857965,雿,0.0,銝,0.0,中,8433.010676236057,0728豪雨,違反相關法規露營場,不符合土地管制法規,是,高,通知營主與遊客準備撤離，檢查車輛動線與備用避難點，雨勢增強即提前離場。,【露營安全預警】苗栗縣泰安鄉「豐之優露營區」目前評估為「預警撤離」。主因：距土石流影響範圍 368 m、鄰近崩塌/警戒範圍、法規狀態需注意。請營主立即通知遊客，確認人員、車輛與聯外道路狀況，必要時依地方政府指示提前撤離。
17,思穀汗 Skuhan 休閒露營區,苗栗縣,泰安鄉,24.388264,120.924581,69.4,預警撤離,195.4399922031139,647.78,30.35,306.0,西北,0.0,59.2,500.4371779874911,擃,0.0,擃,0.0,高,4423.254155761162,0728豪雨,違反相關法規露營場,區域計畫法,是,高,通知營主與遊客準備撤離，檢查車輛動線與備用避難點，雨勢增強即提前離場。,【露營安全預警】苗栗縣泰安鄉「思穀汗 Skuhan 休閒露營區」目前評估為「預警撤離」。主因：DEM坡度 30°、鄰近崩塌/警戒範圍、法規狀態需注意。請營主立即通知遊客，確認人員、車輛與聯外道路狀況，必要時依地方政府指示提前撤離。
18,來灣哈露營區,嘉義縣,阿里山鄉,23.4627359899408,120.700717371329,69.2,預警撤離,238.4161602700151,1142.46,7.11,157.5,南,40.7,22.8,392.4610406275529,雿,22.74204841736363,擃,223.03612776894371,高,2152.217500637776,0728豪雨,違反相關法規露營場,違反區域計畫法,是,高,通知營主與遊客準備撤離，檢查車輛動線與備用避難點，雨勢增強即提前離場。,【露營安全預警】嘉義縣阿里山鄉「來灣哈露營區」目前評估為「預警撤離」。主因：雨量偏高 238 mm/24h、距土石流影響範圍 392 m、鄰近崩塌/警戒範圍、法規狀態需注意。請營主立即通知遊客，確認人員、車輛與聯外道路狀況，必要時依地方政府指示提前撤離。
19,油車寮露營區,嘉義縣,梅山鄉,23.5342580981975,120.70634575301,68.9,預警撤離,226.38197838871895,1117.57,13.81,158.8,南,67.7,41.8,978.7214243431424,銝,0.0,擃,0.0,高,2122.7791906116663,0728豪雨,違反相關法規露營場,違反區域計畫法,否,高,通知營主與遊客準備撤離，檢查車輛動線與備用避難點，雨勢增強即提前離場。,【露營安全預警】嘉義縣梅山鄉「油車寮露營區」目前評估為「預警撤離」。主因：雨量偏高 226 mm/24h、鄰近崩塌/警戒範圍、法規狀態需注意。請營主立即通知遊客，確認人員、車輛與聯外道路狀況，必要時依地方政府指示提前撤離。
20,一陽露營區,南投縣,鹿谷鄉,23.690958,120.7727741,68.7,預警撤離,252.03032229804504,1072.1,22.75,21.7,北,18.1,48.3,1067.5123723102158,銝,0.0,銝,0.0,中,4212.889312944435,0728豪雨,違反相關法規露營場,違反區域計畫法\農業發展條例,否,高,通知營主與遊客準備撤離，檢查車輛動線與備用避難點，雨勢增強即提前離場。,【露營安全預警】南投縣鹿谷鄉「一陽露營區」目前評估為「預警撤離」。主因：雨量偏高 252 mm/24h、鄰近崩塌/警戒範圍、法規狀態需注意。請營主立即通知遊客，確認人員、車輛與聯外道路狀況，必要時依地方政府指示提前撤離。
21,和雅六分營地,南投縣,鹿谷鄉,23.69763,120.77694,68.6,預警撤離,233.7590397678688,823.89,9.12,30.6,東北,19.4,22.1,463.3746701460802,擃,89.36750512556004,銝,178.8977502672239,中,4767.438046985468,丹娜絲颱風、薇帕颱風、0721豪雨,違反相關法規露營場,區域計畫法,否,高,通知營主與遊客準備撤離，檢查車輛動線與備用避難點，雨勢增強即提前離場。,【露營安全預警】南投縣鹿谷鄉「和雅六分營地」目前評估為「預警撤離」。主因：雨量偏高 234 mm/24h、距土石流影響範圍 463 m、鄰近崩塌/警戒範圍、法規狀態需注意。請營主立即通知遊客，確認人員、車輛與聯外道路狀況，必要時依地方政府指示提前撤離。
22,觀雲亭農莊(原名)觀雲露營區,新竹縣,五峰鄉,24.608613,121.099005,67.7,預警撤離,211.6167515367168,887.75,20.72,80.6,東,67.2,55.2,597.3886393785014,蝥閫撖,7.408401979427936,擃,7.408401979427936,高,7404.151813251187,1020豪雨,違反相關法規露營場,不符合土地管制法規,是,高,通知營主與遊客準備撤離，檢查車輛動線與備用避難點，雨勢增強即提前離場。,【露營安全預警】新竹縣五峰鄉「觀雲亭農莊(原名)觀雲露營區」目前評估為「預警撤離」。主因：雨量偏高 212 mm/24h、鄰近崩塌/警戒範圍、法規狀態需注意。請營主立即通知遊客，確認人員、車輛與聯外道路狀況，必要時依地方政府指示提前撤離。
23,紮營趣,苗栗縣,大湖鄉,24.4092,120.906456,67.5,預警撤離,189.8923087140102,480.77,12.16,274.7,西,0.0,23.7,350.6017539796265,銝,0.0,銝,0.0,中,6488.376525991848,0728豪雨,違反相關法規露營場,區域計畫法,否,高,通知營主與遊客準備撤離，檢查車輛動線與備用避難點，雨勢增強即提前離場。,【露營安全預警】苗栗縣大湖鄉「紮營趣」目前評估為「預警撤離」。主因：距土石流影響範圍 351 m、鄰近崩塌/警戒範圍、法規狀態需注意。請營主立即通知遊客，確認人員、車輛與聯外道路狀況，必要時依地方政府指示提前撤離。
24,晨光露營區,嘉義縣,阿里山鄉,23.46413,120.705268,67.2,預警撤離,209.02123795456328,1032.52,11.94,225.6,西南,11.9,25.9,479.4182293467276,雿,84.4238403085597,擃,232.8852495001009,高,1687.4921501574822,0728豪雨,符合相關法規露營場,違反區域計畫法,是,高,通知營主與遊客準備撤離，檢查車輛動線與備用避難點，雨勢增強即提前離場。,【露營安全預警】嘉義縣阿里山鄉「晨光露營區」目前評估為「預警撤離」。主因：雨量偏高 209 mm/24h、距土石流影響範圍 479 m、鄰近崩塌/警戒範圍、法規狀態需注意。請營主立即通知遊客，確認人員、車輛與聯外道路狀況，必要時依地方政府指示提前撤離。
25,友田坊營地,苗栗縣,泰安鄉,24.443843,120.922167,67.1,預警撤離,193.63237753938904,517.47,9.02,226.7,西南,8.3,19.4,328.3837900391732,雿,0.0,銝,0.0,中,8452.091213672356,0728豪雨,違反相關法規露營場,不符合土地管制法規,是,高,通知營主與遊客準備撤離，檢查車輛動線與備用避難點，雨勢增強即提前離場。,【露營安全預警】苗栗縣泰安鄉「友田坊營地」目前評估為「預警撤離」。主因：距土石流影響範圍 328 m、鄰近崩塌/警戒範圍、法規狀態需注意。請營主立即通知遊客，確認人員、車輛與聯外道路狀況，必要時依地方政府指示提前撤離。
26,知本森林遊樂區野營活動場,臺東縣,卑南鄉,22.686871,120.992169,66.8,預警撤離,185.90873343099855,138.4,14.16,118.5,東南,98.8,49.3,576.7792085330659,蝥閫撖,0.0,銝,123.86688937949468,中,5693.207534056104,0728豪雨,符合相關法規露營場,無或未標示,是,高,通知營主與遊客準備撤離，檢查車輛動線與備用避難點，雨勢增強即提前離場。,【露營安全預警】臺東縣卑南鄉「知本森林遊樂區野營活動場」目前評估為「預警撤離」。主因：坡向 東南，迎風暴露較高、鄰近崩塌/警戒範圍、法規狀態需注意。請營主立即通知遊客，確認人員、車輛與聯外道路狀況，必要時依地方政府指示提前撤離。
27,哈撒山莊,苗栗縣,泰安鄉,24.425484,120.915727,66.6,預警撤離,213.59299327913268,713.0,26.94,225.7,西南,11.9,55.2,1425.860859540221,擃,0.0,銝,0.0,中,8308.600577017134,0728豪雨,違反相關法規露營場,區域計畫法,是,高,通知營主與遊客準備撤離，檢查車輛動線與備用避難點，雨勢增強即提前離場。,【露營安全預警】苗栗縣泰安鄉「哈撒山莊」目前評估為「預警撤離」。主因：雨量偏高 214 mm/24h、鄰近崩塌/警戒範圍、法規狀態需注意。請營主立即通知遊客，確認人員、車輛與聯外道路狀況，必要時依地方政府指示提前撤離。
28,太山農場露營區,嘉義縣,梅山鄉,23.5344498258126,120.707522666503,66.4,預警撤離,224.05869377222228,1132.46,11.49,203.4,西南,29.2,28.8,973.070157560868,銝,0.0,擃,0.0,高,2006.9145629646496,0728豪雨,違反相關法規露營場,違反區域計畫法,否,高,通知營主與遊客準備撤離，檢查車輛動線與備用避難點，雨勢增強即提前離場。,【露營安全預警】嘉義縣梅山鄉「太山農場露營區」目前評估為「預警撤離」。主因：雨量偏高 224 mm/24h、鄰近崩塌/警戒範圍、法規狀態需注意。請營主立即通知遊客，確認人員、車輛與聯外道路狀況，必要時依地方政府指示提前撤離。
29,熊班長小團露,苗栗縣,大湖鄉,24.420093,120.904233,66.4,預警撤離,190.74016829595024,501.76,14.53,325.1,西北,0.0,28.3,190.54709929689184,擃,210.48193688861605,銝,929.4365848738986,中,7705.943335761637,0728豪雨,違反相關法規露營場,不符合土地管制法規,否,高,通知營主與遊客準備撤離，檢查車輛動線與備用避難點，雨勢增強即提前離場。,【露營安全預警】苗栗縣大湖鄉「熊班長小團露」目前評估為「預警撤離」。主因：距土石流影響範圍 191 m、鄰近崩塌/警戒範圍、法規狀態需注意。請營主立即通知遊客，確認人員、車輛與聯外道路狀況，必要時依地方政府指示提前撤離。
30,比拉多露營區,新竹縣,五峰鄉,24.643722,121.12272,66.2,預警撤離,195.27282215974824,324.86,17.62,93.3,東,77.8,51.5,125.28355272566805,擃,341.23771771356786,銝,605.2898359759366,中,6452.518458321304,1020豪雨,違反相關法規露營場,區域計畫法,是,高,通知營主與遊客準備撤離，檢查車輛動線與備用避難點，雨勢增強即提前離場。,【露營安全預警】新竹縣五峰鄉「比拉多露營區」目前評估為「預警撤離」。主因：坡向 東，迎風暴露較高、距土石流影響範圍 125 m、鄰近崩塌/警戒範圍、法規狀態需注意。請營主立即通知遊客，確認人員、車輛與聯外道路狀況，必要時依地方政府指示提前撤離。
31,景柏涵多露營區,苗栗縣,泰安鄉,24.4442,120.90852,66.2,預警撤離,182.57638266180007,448.33,29.7,254.4,西,0.0,57.9,243.45166293138607,擃,387.8122576127016,銝,870.4070516262728,中,7666.801461100172,0728豪雨,違反相關法規露營場,區域計畫法,是,高,通知營主與遊客準備撤離，檢查車輛動線與備用避難點，雨勢增強即提前離場。,【露營安全預警】苗栗縣泰安鄉「景柏涵多露營區」目前評估為「預警撤離」。主因：距土石流影響範圍 243 m、鄰近崩塌/警戒範圍、法規狀態需注意。請營主立即通知遊客，確認人員、車輛與聯外道路狀況，必要時依地方政府指示提前撤離。
32,野行野宿露營簡餐咖啡坊,桃園市,復興區,24.780102,121.358676,66.0,預警撤離,194.87772813797253,481.37,18.77,76.9,東,64.1,50.7,187.60768036885028,蝥閫撖,328.84257690508014,銝,328.84257690508014,中,1911.9875704952824,0728豪雨,違反相關法規露營場,農業發展條例,是,高,通知營主與遊客準備撤離，檢查車輛動線與備用避難點，雨勢增強即提前離場。,【露營安全預警】桃園市復興區「野行野宿露營簡餐咖啡坊」目前評估為「預警撤離」。主因：距土石流影響範圍 188 m、鄰近崩塌/警戒範圍、法規狀態需注意。請營主立即通知遊客，確認人員、車輛與聯外道路狀況，必要時依地方政府指示提前撤離。
33,福人居民宿,苗栗縣,大湖鄉,24.412334,120.906707,65.8,預警撤離,193.8751756323687,476.23,13.16,273.1,西,0.0,25.7,359.20249850137344,銝,51.7906998461339,銝,51.79067607825833,中,6834.017614385844,0728豪雨,違反相關法規露營場,不符合土地管制法規,否,高,通知營主與遊客準備撤離，檢查車輛動線與備用避難點，雨勢增強即提前離場。,【露營安全預警】苗栗縣大湖鄉「福人居民宿」目前評估為「預警撤離」。主因：距土石流影響範圍 359 m、鄰近崩塌/警戒範圍、法規狀態需注意。請營主立即通知遊客，確認人員、車輛與聯外道路狀況，必要時依地方政府指示提前撤離。
34,左岸涼山營地,新竹縣,五峰鄉,24.609536,121.100504,65.5,預警撤離,217.40565393906465,823.06,12.09,20.1,北,16.8,27.3,621.2428007270203,蝥閫撖,0.0,擃,0.0,高,7388.188611583511,1020豪雨,違反相關法規露營場,不符合土地管制法規,是,高,通知營主與遊客準備撤離，檢查車輛動線與備用避難點，雨勢增強即提前離場。,【露營安全預警】新竹縣五峰鄉「左岸涼山營地」目前評估為「預警撤離」。主因：雨量偏高 217 mm/24h、鄰近崩塌/警戒範圍、法規狀態需注意。請營主立即通知遊客，確認人員、車輛與聯外道路狀況，必要時依地方政府指示提前撤離。
35,田度550露營區,苗栗縣,泰安鄉,24.446845,120.918887,65.2,預警撤離,202.6501828030088,511.14,30.16,201.2,南,32.3,65.9,772.9190131646463,雿,120.10625455691232,銝,139.40808263525346,中,7986.83107419814,0728豪雨,違反相關法規露營場,區域計畫法,是,高,通知營主與遊客準備撤離，檢查車輛動線與備用避難點，雨勢增強即提前離場。,【露營安全預警】苗栗縣泰安鄉「田度550露營區」目前評估為「預警撤離」。主因：雨量偏高 203 mm/24h、DEM坡度 30°、鄰近崩塌/警戒範圍、法規狀態需注意。請營主立即通知遊客，確認人員、車輛與聯外道路狀況，必要時依地方政府指示提前撤離。
36,馬嘟溪露營基地,苗栗縣,泰安鄉,24.444765,120.917892,64.0,加強監測,183.6852613169855,387.76,17.9,271.3,西,0.0,34.9,668.0051733937518,雿,0.0,銝,0.0,中,8115.27820293969,0728豪雨,違反相關法規露營場,區域計畫法,是,高,維持每 30–60 分鐘巡查邊坡、溪水與道路狀況，準備雨具、照明與通訊設備。,【露營安全提醒】苗栗縣泰安鄉「馬嘟溪露營基地」目前為「加強監測」。主因：鄰近崩塌/警戒範圍、法規狀態需注意。請持續注意雨勢、溪水與邊坡狀況，先完成撤離路線與聯絡名冊確認。
37,阿麗露營區,苗栗縣,泰安鄉,24.42516,120.914173,63.9,加強監測,196.13674770342257,648.34,23.48,226.9,西南,10.9,48.2,1276.5713879613447,擃,0.0,銝,0.0,中,8262.308019707158,0728豪雨,違反相關法規露營場,不符合土地管制法規,是,高,維持每 30–60 分鐘巡查邊坡、溪水與道路狀況，準備雨具、照明與通訊設備。,【露營安全提醒】苗栗縣泰安鄉「阿麗露營區」目前為「加強監測」。主因：鄰近崩塌/警戒範圍、法規狀態需注意。請持續注意雨勢、溪水與邊坡狀況，先完成撤離路線與聯絡名冊確認。
38,享露菲菲露營區,苗栗縣,泰安鄉,24.4229478100092,120.920130087723,63.6,加強監測,215.45118831615224,828.26,26.13,295.6,西北,0.0,51.0,1694.5209143805805,擃,85.78987071096644,銝,85.78987071096644,中,8075.8505506714355,0728豪雨,違反相關法規露營場,區域計畫法,是,高,維持每 30–60 分鐘巡查邊坡、溪水與道路狀況，準備雨具、照明與通訊設備。,【露營安全提醒】苗栗縣泰安鄉「享露菲菲露營區」目前為「加強監測」。主因：雨量偏高 215 mm/24h、鄰近崩塌/警戒範圍、法規狀態需注意。請持續注意雨勢、溪水與邊坡狀況，先完成撤離路線與聯絡名冊確認。
39,日月山河露營區,苗栗縣,泰安鄉,24.40953,120.91155,63.3,加強監測,194.5297260229557,617.7,13.34,252.5,西,0.0,26.0,826.8019342440301,銝,0.0,銝,0.0,中,6520.958529556385,0728豪雨,違反相關法規露營場,區域計畫法,是,高,維持每 30–60 分鐘巡查邊坡、溪水與道路狀況，準備雨具、照明與通訊設備。,【露營安全提醒】苗栗縣泰安鄉「日月山河露營區」目前為「加強監測」。主因：鄰近崩塌/警戒範圍、法規狀態需注意。請持續注意雨勢、溪水與邊坡狀況，先完成撤離路線與聯絡名冊確認。
40,瑞里雲淡風輕露營區,嘉義縣,梅山鄉,23.5298293823257,120.66649915045,62.4,加強監測,216.9713048081363,1028.99,12.97,93.2,東,77.7,42.4,487.7489013445248,銝,402.6454078856797,擃,715.5293359225866,高,2095.993917505484,0728豪雨,違反相關法規露營場,違反區域計畫法,否,高,維持每 30–60 分鐘巡查邊坡、溪水與道路狀況，準備雨具、照明與通訊設備。,【露營安全提醒】嘉義縣梅山鄉「瑞里雲淡風輕露營區」目前為「加強監測」。主因：雨量偏高 217 mm/24h、坡向 東，迎風暴露較高、距土石流影響範圍 488 m、鄰近崩塌/警戒範圍、法規狀態需注意。請持續注意雨勢、溪水與邊坡狀況，先完成撤離路線與聯絡名冊確認。
41,南灣蹓蹓,苗栗縣,泰安鄉,24.412225,120.912265,62.0,加強監測,193.13004750677348,644.59,16.74,268.0,西,0.0,32.6,897.6444798557054,銝,55.46909305970752,銝,55.46909305970752,中,6821.884477158905,0728豪雨,違反相關法規露營場,不符合土地管制法規,是,高,維持每 30–60 分鐘巡查邊坡、溪水與道路狀況，準備雨具、照明與通訊設備。,【露營安全提醒】苗栗縣泰安鄉「南灣蹓蹓」目前為「加強監測」。主因：鄰近崩塌/警戒範圍、法規狀態需注意。請持續注意雨勢、溪水與邊坡狀況，先完成撤離路線與聯絡名冊確認。
42,小森林農園露營區,嘉義縣,阿里山鄉,23.4677085655313,120.708795023895,61.9,加強監測,231.28191180886495,1247.52,16.78,233.1,西南,5.7,34.0,779.1284087237788,雿,247.92911558298852,擃,313.6409866922013,高,1392.6270618825308,0728豪雨,違反相關法規露營場,違反區域計畫法,是,高,維持每 30–60 分鐘巡查邊坡、溪水與道路狀況，準備雨具、照明與通訊設備。,【露營安全提醒】嘉義縣阿里山鄉「小森林農園露營區」目前為「加強監測」。主因：雨量偏高 231 mm/24h、鄰近崩塌/警戒範圍、法規狀態需注意。請持續注意雨勢、溪水與邊坡狀況，先完成撤離路線與聯絡名冊確認。
43,回薌庭露營區,新竹縣,尖石鄉,24.668442,121.210182,61.7,加強監測,214.5021119945847,638.49,20.31,256.6,西,0.0,39.6,352.4259570825447,銝,438.5306695028248,擃,640.9604466495248,高,14715.730949555746,1020豪雨,違反相關法規露營場,不符合土地管制法規,是,高,維持每 30–60 分鐘巡查邊坡、溪水與道路狀況，準備雨具、照明與通訊設備。,【露營安全提醒】新竹縣尖石鄉「回薌庭露營區」目前為「加強監測」。主因：雨量偏高 215 mm/24h、距土石流影響範圍 352 m、鄰近崩塌/警戒範圍、法規狀態需注意。請持續注意雨勢、溪水與邊坡狀況，先完成撤離路線與聯絡名冊確認。
44,翔雲露營區,苗栗縣,泰安鄉,24.407806,120.911806,61.7,加強監測,191.57797139787328,632.78,16.29,300.6,西北,0.0,31.8,905.8513595950296,銝,6.664144752001762,銝,6.664144752001762,中,6331.023311894508,0728豪雨,違反相關法規露營場,不符合土地管制法規,是,高,維持每 30–60 分鐘巡查邊坡、溪水與道路狀況，準備雨具、照明與通訊設備。,【露營安全提醒】苗栗縣泰安鄉「翔雲露營區」目前為「加強監測」。主因：鄰近崩塌/警戒範圍、法規狀態需注意。請持續注意雨勢、溪水與邊坡狀況，先完成撤離路線與聯絡名冊確認。
45,田野露營區,新竹縣,尖石鄉,24.671856,121.213189,61.6,加強監測,212.4262205107259,629.74,20.54,281.6,西,0.0,40.1,296.1671010642147,銝,329.742731050197,擃,437.5295968395325,高,15025.102618208955,1020豪雨,違反相關法規露營場,不符合土地管制法規,是,高,維持每 30–60 分鐘巡查邊坡、溪水與道路狀況，準備雨具、照明與通訊設備。,【露營安全提醒】新竹縣尖石鄉「田野露營區」目前為「加強監測」。主因：雨量偏高 212 mm/24h、距土石流影響範圍 296 m、鄰近崩塌/警戒範圍、法規狀態需注意。請持續注意雨勢、溪水與邊坡狀況，先完成撤離路線與聯絡名冊確認。
46,夏特義露營區,苗栗縣,泰安鄉,24.42336,120.918903,61.6,加強監測,204.4978931780852,779.19,23.05,315.0,西北,0.0,44.9,1595.262372234637,擃,45.588061617255605,銝,45.588061617255605,中,8105.544449649948,0728豪雨,違反相關法規露營場,不符合土地管制法規,是,高,維持每 30–60 分鐘巡查邊坡、溪水與道路狀況，準備雨具、照明與通訊設備。,【露營安全提醒】苗栗縣泰安鄉「夏特義露營區」目前為「加強監測」。主因：雨量偏高 204 mm/24h、鄰近崩塌/警戒範圍、法規狀態需注意。請持續注意雨勢、溪水與邊坡狀況，先完成撤離路線與聯絡名冊確認。
47,香杉露營區,新竹縣,尖石鄉,24.66881,121.211726,61.5,加強監測,217.56243314612092,678.38,14.81,197.0,南,35.8,36.8,349.9480429588173,銝,464.9401038150547,擃,645.8662857571436,高,14872.085023397967,1020豪雨,違反相關法規露營場,區域計畫法,是,高,維持每 30–60 分鐘巡查邊坡、溪水與道路狀況，準備雨具、照明與通訊設備。,【露營安全提醒】新竹縣尖石鄉「香杉露營區」目前為「加強監測」。主因：雨量偏高 218 mm/24h、距土石流影響範圍 350 m、鄰近崩塌/警戒範圍、法規狀態需注意。請持續注意雨勢、溪水與邊坡狀況，先完成撤離路線與聯絡名冊確認。
48,納格林野營,花蓮縣,光復鄉,23.60428,121.37909,61.5,加強監測,181.63740137838417,211.04,9.27,67.3,東北,43.3,27.6,335.2114138431358,雿,161.34919256982084,銝,203.2199425740127,中,4770.476653436424,樺加沙颱風,違反相關法規露營場,區域計畫法,是,高,維持每 30–60 分鐘巡查邊坡、溪水與道路狀況，準備雨具、照明與通訊設備。,【露營安全提醒】花蓮縣光復鄉「納格林野營」目前為「加強監測」。主因：距土石流影響範圍 335 m、鄰近崩塌/警戒範圍、法規狀態需注意。請持續注意雨勢、溪水與邊坡狀況，先完成撤離路線與聯絡名冊確認。
49,田度375之一露營場,苗栗縣,泰安鄉,24.4441,120.91698,61.3,加強監測,185.50814125181307,344.77,9.4,234.6,西南,3.5,19.1,703.4011362826654,雿,0.0,銝,15.319245993819504,中,8123.694882189016,0728豪雨,違反相關法規露營場,區域計畫法,是,高,維持每 30–60 分鐘巡查邊坡、溪水與道路狀況，準備雨具、照明與通訊設備。,【露營安全提醒】苗栗縣泰安鄉「田度375之一露營場」目前為「加強監測」。主因：鄰近崩塌/警戒範圍、法規狀態需注意。請持續注意雨勢、溪水與邊坡狀況，先完成撤離路線與聯絡名冊確認。
50,麥的莊園露營區,高雄市,那瑪夏區,23.249121,120.692309,61.1,加強監測,194.22281169453265,572.92,10.05,105.6,東,73.7,35.8,0.0,雿,15341.700829885382,銝,15733.49511424043,中,767.6564075439302,0728豪雨,違反相關法規露營場,區域計畫法,是,高,維持每 30–60 分鐘巡查邊坡、溪水與道路狀況，準備雨具、照明與通訊設備。,【露營安全提醒】高雄市那瑪夏區「麥的莊園露營區」目前為「加強監測」。主因：坡向 東，迎風暴露較高、距土石流影響範圍 0 m、法規狀態需注意。請持續注意雨勢、溪水與邊坡狀況，先完成撤離路線與聯絡名冊確認。
51,卡拉傳奇觀光農場-阿爸的故事,桃園市,復興區,24.695764,121.408917,60.9,加強監測,201.04364425599212,896.35,17.9,165.6,南,62.0,48.5,0.0,銝,1546.7048850313097,擃,1546.7048850313097,高,9273.772561412605,0728豪雨,違反相關法規露營場,農業發展條例,是,高,維持每 30–60 分鐘巡查邊坡、溪水與道路狀況，準備雨具、照明與通訊設備。,【露營安全提醒】桃園市復興區「卡拉傳奇觀光農場-阿爸的故事」目前為「加強監測」。主因：雨量偏高 201 mm/24h、距土石流影響範圍 0 m、法規狀態需注意。請持續注意雨勢、溪水與邊坡狀況，先完成撤離路線與聯絡名冊確認。
52,格瑞菈森林露營區,嘉義縣,梅山鄉,23.5386130724896,120.66516176419,60.7,加強監測,213.90706139369223,1019.69,7.08,162.6,南,38.1,22.2,1131.7428235782595,銝,0.0,擃,0.0,高,3039.30797560355,0728豪雨,違反相關法規露營場,違反區域計畫法,否,高,維持每 30–60 分鐘巡查邊坡、溪水與道路狀況，準備雨具、照明與通訊設備。,【露營安全提醒】嘉義縣梅山鄉「格瑞菈森林露營區」目前為「加強監測」。主因：雨量偏高 214 mm/24h、鄰近崩塌/警戒範圍、法規狀態需注意。請持續注意雨勢、溪水與邊坡狀況，先完成撤離路線與聯絡名冊確認。
53,依山山露營區,高雄市,六龜區,23.071829307615,120.688475224053,60.5,加強監測,185.55960258679204,410.98,9.62,298.6,西北,0.0,18.8,24.209390459981517,擃,974.4523009745608,擃,413.2775248465268,高,760.2383665412917,0728豪雨,違反相關法規露營場,區域計畫法,否,高,維持每 30–60 分鐘巡查邊坡、溪水與道路狀況，準備雨具、照明與通訊設備。,【露營安全提醒】高雄市六龜區「依山山露營區」目前為「加強監測」。主因：距土石流影響範圍 24 m、鄰近崩塌/警戒範圍、法規狀態需注意。請持續注意雨勢、溪水與邊坡狀況，先完成撤離路線與聯絡名冊確認。
54,馬沙露營區,南投縣,國姓鄉,24.052274,120.874422,60.3,加強監測,191.30311124754925,339.18,5.44,321.3,西北,0.0,10.6,80.26375678517323,銝,10294.016857841872,雿,10294.016857841872,低,141.3185095173474,0728豪雨,違反相關法規露營場,區域計畫法,否,高,維持每 30–60 分鐘巡查邊坡、溪水與道路狀況，準備雨具、照明與通訊設備。,【露營安全提醒】南投縣國姓鄉「馬沙露營區」目前為「加強監測」。主因：距土石流影響範圍 80 m、法規狀態需注意。請持續注意雨勢、溪水與邊坡狀況，先完成撤離路線與聯絡名冊確認。
55,辣妹子露營區,南投縣,仁愛鄉,24.0282169,121.1605948,60.2,加強監測,231.3233314364596,1196.46,18.1,120.2,東南,99.8,57.3,83.85242160931183,銝,2105.35947949511,擃,2105.35947949511,高,6448.165477840582,丹娜絲颱風、薇帕颱風、0721豪雨,違反相關法規露營場,區域計畫法,是,高,維持每 30–60 分鐘巡查邊坡、溪水與道路狀況，準備雨具、照明與通訊設備。,【露營安全提醒】南投縣仁愛鄉「辣妹子露營區」目前為「加強監測」。主因：雨量偏高 231 mm/24h、坡向 東南，迎風暴露較高、距土石流影響範圍 84 m、法規狀態需注意。請持續注意雨勢、溪水與邊坡狀況，先完成撤離路線與聯絡名冊確認。
56,依星生態農場,南投縣,中寮鄉,23.96077,120.83453,60.2,加強監測,223.92069648770848,1041.91,18.88,59.3,東北,49.4,47.7,1743.659331276965,雿,234.50784222093432,雿,234.50784222093432,低,4807.167962844872,0728豪雨,違反相關法規露營場,區域計畫法,否,高,維持每 30–60 分鐘巡查邊坡、溪水與道路狀況，準備雨具、照明與通訊設備。,【露營安全提醒】南投縣中寮鄉「依星生態農場」目前為「加強監測」。主因：雨量偏高 224 mm/24h、鄰近崩塌/警戒範圍、法規狀態需注意。請持續注意雨勢、溪水與邊坡狀況，先完成撤離路線與聯絡名冊確認。
57,客泊樂野奢露營,苗栗縣,泰安鄉,24.419939,120.913363,60.2,加強監測,190.109816286656,632.64,30.21,175.4,南,53.8,70.7,939.3444372816328,擃,348.1213326289457,銝,399.64762959783934,中,7680.463251168163,0728豪雨,違反相關法規露營場,區域計畫法,是,高,維持每 30–60 分鐘巡查邊坡、溪水與道路狀況，準備雨具、照明與通訊設備。,【露營安全提醒】苗栗縣泰安鄉「客泊樂野奢露營」目前為「加強監測」。主因：DEM坡度 30°、鄰近崩塌/警戒範圍、法規狀態需注意。請持續注意雨勢、溪水與邊坡狀況，先完成撤離路線與聯絡名冊確認。
58,九叔公露營區,嘉義縣,竹崎鄉,23.4799497316751,120.672457481568,60.0,加強監測,225.07411291289225,946.32,21.6,146.1,東南,78.3,59.3,70.43118053041748,擃,2713.6821025104964,擃,2713.9355023342155,高,1546.974839127264,0728豪雨,違反相關法規露營場,違反區域計畫法,否,高,維持每 30–60 分鐘巡查邊坡、溪水與道路狀況，準備雨具、照明與通訊設備。,【露營安全提醒】嘉義縣竹崎鄉「九叔公露營區」目前為「加強監測」。主因：雨量偏高 225 mm/24h、坡向 東南，迎風暴露較高、距土石流影響範圍 70 m、法規狀態需注意。請持續注意雨勢、溪水與邊坡狀況，先完成撤離路線與聯絡名冊確認。
59,徠悠露營區,苗栗縣,泰安鄉,24.34634,120.9621,60.0,加強監測,206.21613522851044,874.3,45.28,39.0,東北,32.5,85.2,183.30750889284275,蝥閫撖,3359.7688399700937,擃,3359.7688399700937,高,5279.514660842679,0728豪雨,違反相關法規露營場,區域計畫法,是,高,維持每 30–60 分鐘巡查邊坡、溪水與道路狀況，準備雨具、照明與通訊設備。,【露營安全提醒】苗栗縣泰安鄉「徠悠露營區」目前為「加強監測」。主因：雨量偏高 206 mm/24h、DEM坡度 45°、距土石流影響範圍 183 m、法規狀態需注意。請持續注意雨勢、溪水與邊坡狀況，先完成撤離路線與聯絡名冊確認。
60,閑情園,新竹縣,尖石鄉,24.68252,121.205521,59.8,加強監測,197.46525738261928,670.36,13.96,52.6,東北,43.8,36.9,387.4191949424357,擃,460.7038982247928,擃,460.7038982247928,高,14330.359336574584,1020豪雨,違反相關法規露營場,不符合土地管制法規,是,高,維持每 30–60 分鐘巡查邊坡、溪水與道路狀況，準備雨具、照明與通訊設備。,【露營安全提醒】新竹縣尖石鄉「閑情園」目前為「加強監測」。主因：距土石流影響範圍 387 m、鄰近崩塌/警戒範圍、法規狀態需注意。請持續注意雨勢、溪水與邊坡狀況，先完成撤離路線與聯絡名冊確認。
61,蘇彥露營場,苗栗縣,泰安鄉,24.40782,120.91278,59.8,加強監測,186.63652058435392,654.04,11.98,307.1,西北,0.0,23.4,997.4960060621984,銝,17.927323707370675,銝,17.927323707370675,中,6336.982207000924,0728豪雨,違反相關法規露營場,區域計畫法,是,高,維持每 30–60 分鐘巡查邊坡、溪水與道路狀況，準備雨具、照明與通訊設備。,【露營安全提醒】苗栗縣泰安鄉「蘇彥露營場」目前為「加強監測」。主因：鄰近崩塌/警戒範圍、法規狀態需注意。請持續注意雨勢、溪水與邊坡狀況，先完成撤離路線與聯絡名冊確認。
62,許家茶園民宿露營區,嘉義縣,梅山鄉,23.5438271556689,120.672544709171,59.7,加強監測,214.3744515605825,1184.1,10.52,183.7,南,41.1,29.6,623.2099197871852,銝,100.24530030318384,擃,100.24530030318384,高,3424.061598517724,0728豪雨,違反相關法規露營場,違反區域計畫法,否,高,維持每 30–60 分鐘巡查邊坡、溪水與道路狀況，準備雨具、照明與通訊設備。,【露營安全提醒】嘉義縣梅山鄉「許家茶園民宿露營區」目前為「加強監測」。主因：雨量偏高 214 mm/24h、鄰近崩塌/警戒範圍、法規狀態需注意。請持續注意雨勢、溪水與邊坡狀況，先完成撤離路線與聯絡名冊確認。
63,鷹的故鄉,苗栗縣,泰安鄉,24.421526,120.918309,59.6,加強監測,209.87385792719056,797.56,26.03,238.4,西南,1.3,51.0,1469.8298164007283,擃,227.14282116385584,銝,227.14282116385584,中,7896.836783830129,0728豪雨,違反相關法規露營場,區域計畫法,是,高,維持每 30–60 分鐘巡查邊坡、溪水與道路狀況，準備雨具、照明與通訊設備。,【露營安全提醒】苗栗縣泰安鄉「鷹的故鄉」目前為「加強監測」。主因：雨量偏高 210 mm/24h、鄰近崩塌/警戒範圍、法規狀態需注意。請持續注意雨勢、溪水與邊坡狀況，先完成撤離路線與聯絡名冊確認。
64,KK露營區,苗栗縣,泰安鄉,24.37712,120.95779,59.6,加強監測,200.3998771279256,728.99,20.21,100.9,東,84.1,57.9,0.0,雿,3342.610674097055,擃,3342.610674097055,高,5652.505731854359,0728豪雨,違反相關法規露營場,區域計畫法,是,高,維持每 30–60 分鐘巡查邊坡、溪水與道路狀況，準備雨具、照明與通訊設備。,【露營安全提醒】苗栗縣泰安鄉「KK露營區」目前為「加強監測」。主因：雨量偏高 200 mm/24h、坡向 東，迎風暴露較高、距土石流影響範圍 0 m、法規狀態需注意。請持續注意雨勢、溪水與邊坡狀況，先完成撤離路線與聯絡名冊確認。
65,頤生園,苗栗縣,卓蘭鎮,24.32796,120.89141,59.5,加強監測,205.1358964217273,579.02,26.35,22.0,北,18.3,55.4,0.0,擃,2739.704493764629,擃,3080.1141759461284,高,1725.266889322191,0728豪雨,違反相關法規露營場,區域計畫法,否,高,維持每 30–60 分鐘巡查邊坡、溪水與道路狀況，準備雨具、照明與通訊設備。,【露營安全提醒】苗栗縣卓蘭鎮「頤生園」目前為「加強監測」。主因：雨量偏高 205 mm/24h、距土石流影響範圍 0 m、法規狀態需注意。請持續注意雨勢、溪水與邊坡狀況，先完成撤離路線與聯絡名冊確認。
66,雲境露營區,苗栗縣,泰安鄉,24.426828,120.919595,59.3,加強監測,219.59322818620308,837.06,12.92,279.0,西,0.0,25.2,1361.2334521474938,擃,55.62435217627876,銝,55.62435217627876,中,8495.255647355216,0728豪雨,違反相關法規露營場,不符合土地管制法規,是,高,維持每 30–60 分鐘巡查邊坡、溪水與道路狀況，準備雨具、照明與通訊設備。,【露營安全提醒】苗栗縣泰安鄉「雲境露營區」目前為「加強監測」。主因：雨量偏高 220 mm/24h、鄰近崩塌/警戒範圍、法規狀態需注意。請持續注意雨勢、溪水與邊坡狀況，先完成撤離路線與聯絡名冊確認。
67,冠銘露營區,嘉義縣,竹崎鄉,23.4910124308508,120.684395981568,59.2,加強監測,227.8898695164198,1021.44,20.29,133.8,東南,88.5,59.0,446.8568668096861,銝,1752.5388121206815,銝,1685.5228155476414,中,697.3066469248826,0728豪雨,違反相關法規露營場,違反區域計畫法,否,高,維持每 30–60 分鐘巡查邊坡、溪水與道路狀況，準備雨具、照明與通訊設備。,【露營安全提醒】嘉義縣竹崎鄉「冠銘露營區」目前為「加強監測」。主因：雨量偏高 228 mm/24h、坡向 東南，迎風暴露較高、距土石流影響範圍 447 m、法規狀態需注意。請持續注意雨勢、溪水與邊坡狀況，先完成撤離路線與聯絡名冊確認。
68,逸視界露營區,苗栗縣,泰安鄉,24.4273,120.923857,59.1,加強監測,203.01609403871916,934.09,16.34,274.2,西,0.0,31.9,1266.816239395217,擃,59.52336805545844,銝,59.52336805545844,中,8609.345547504005,0728豪雨,違反相關法規露營場,不符合土地管制法規,是,高,維持每 30–60 分鐘巡查邊坡、溪水與道路狀況，準備雨具、照明與通訊設備。,【露營安全提醒】苗栗縣泰安鄉「逸視界露營區」目前為「加強監測」。主因：雨量偏高 203 mm/24h、鄰近崩塌/警戒範圍、法規狀態需注意。請持續注意雨勢、溪水與邊坡狀況，先完成撤離路線與聯絡名冊確認。
69,雙香露營區 (自由國小),臺中市,和平區,24.29201,120.912361,58.9,加強監測,202.9346067784965,557.9,32.86,248.6,西,0.0,64.1,78.81340401755487,雿,3526.38670275353,擃,3852.356949015196,高,1478.94977409247,0728豪雨,違反相關法規露營場,區域計畫法,是,高,維持每 30–60 分鐘巡查邊坡、溪水與道路狀況，準備雨具、照明與通訊設備。,【露營安全提醒】臺中市和平區「雙香露營區 (自由國小)」目前為「加強監測」。主因：雨量偏高 203 mm/24h、DEM坡度 33°、距土石流影響範圍 79 m、法規狀態需注意。請持續注意雨勢、溪水與邊坡狀況，先完成撤離路線與聯絡名冊確認。
70,密式旅行,苗栗縣,泰安鄉,24.4188230111628,120.913732910157,58.5,加強監測,211.6079892287938,601.77,26.32,320.8,西北,0.0,51.3,952.4952583622958,擃,467.0745019068282,銝,510.0389633129028,中,7559.062363670164,0728豪雨,違反相關法規露營場,不符合土地管制法規,是,高,維持每 30–60 分鐘巡查邊坡、溪水與道路狀況，準備雨具、照明與通訊設備。,【露營安全提醒】苗栗縣泰安鄉「密式旅行」目前為「加強監測」。主因：雨量偏高 212 mm/24h、鄰近崩塌/警戒範圍、法規狀態需注意。請持續注意雨勢、溪水與邊坡狀況，先完成撤離路線與聯絡名冊確認。
71,布魯的家露營區,新竹縣,五峰鄉,24.573135,121.091689,58.4,加強監測,245.3601705222224,984.83,41.48,64.4,東北,53.7,89.8,540.5066268919558,擃,875.8817159771355,銝,1069.9154748379517,中,7700.089923406673,0728豪雨,違反相關法規露營場,區域計畫法,是,高,維持每 30–60 分鐘巡查邊坡、溪水與道路狀況，準備雨具、照明與通訊設備。,【露營安全提醒】新竹縣五峰鄉「布魯的家露營區」目前為「加強監測」。主因：雨量偏高 245 mm/24h、DEM坡度 41°、法規狀態需注意。請持續注意雨勢、溪水與邊坡狀況，先完成撤離路線與聯絡名冊確認。
72,景山露營區,嘉義縣,竹崎鄉,23.4797329838895,120.672416952732,58.4,加強監測,215.365156198994,940.18,19.95,150.9,東南,74.2,55.2,74.75625677373169,擃,2710.108258373061,擃,2710.354965219084,高,1556.4034050636749,0728豪雨,違反相關法規露營場,違反區域計畫法,否,高,維持每 30–60 分鐘巡查邊坡、溪水與道路狀況，準備雨具、照明與通訊設備。,【露營安全提醒】嘉義縣竹崎鄉「景山露營區」目前為「加強監測」。主因：雨量偏高 215 mm/24h、坡向 東南，迎風暴露較高、距土石流影響範圍 75 m、法規狀態需注意。請持續注意雨勢、溪水與邊坡狀況，先完成撤離路線與聯絡名冊確認。
73,HOLA吼辣露營區,桃園市,復興區,24.770521,121.355596,58.4,加強監測,187.09715760836767,552.97,13.68,192.9,南,39.2,35.3,774.945366655532,蝥閫撖,244.02093891458185,銝,244.02093891458185,中,808.6417452880726,0728豪雨,違反相關法規露營場,區域計畫法,是,高,維持每 30–60 分鐘巡查邊坡、溪水與道路狀況，準備雨具、照明與通訊設備。,【露營安全提醒】桃園市復興區「HOLA吼辣露營區」目前為「加強監測」。主因：鄰近崩塌/警戒範圍、法規狀態需注意。請持續注意雨勢、溪水與邊坡狀況，先完成撤離路線與聯絡名冊確認。
74,迦南之地露營區,南投縣,仁愛鄉,23.90854,121.04081,58.3,加強監測,228.12351526093923,730.2,13.61,118.3,東南,98.6,48.2,87.70637104559748,雿,12165.639418177278,擃,12215.812952813762,高,994.7349358304276,丹娜絲颱風、薇帕颱風、0721豪雨,違反相關法規露營場,區域計畫法,是,高,維持每 30–60 分鐘巡查邊坡、溪水與道路狀況，準備雨具、照明與通訊設備。,【露營安全提醒】南投縣仁愛鄉「迦南之地露營區」目前為「加強監測」。主因：雨量偏高 228 mm/24h、坡向 東南，迎風暴露較高、距土石流影響範圍 88 m、法規狀態需注意。請持續注意雨勢、溪水與邊坡狀況，先完成撤離路線與聯絡名冊確認。
75,小豬迷露,南投縣,國姓鄉,23.9092333,120.8526028,58.2,加強監測,213.7982875161303,752.2,24.81,34.9,東北,29.1,54.8,33.51250196060741,擃,4286.807804174296,雿,4528.362548653679,低,1245.7001801460642,0728豪雨,違反相關法規露營場,區域計畫法,否,高,維持每 30–60 分鐘巡查邊坡、溪水與道路狀況，準備雨具、照明與通訊設備。,【露營安全提醒】南投縣國姓鄉「小豬迷露」目前為「加強監測」。主因：雨量偏高 214 mm/24h、距土石流影響範圍 34 m、法規狀態需注意。請持續注意雨勢、溪水與邊坡狀況，先完成撤離路線與聯絡名冊確認。
76,淳風皓月露營區,嘉義縣,番路鄉,23.4270122342981,120.6422805665,58.2,加強監測,205.54304480332527,759.72,13.09,287.4,西,0.0,25.5,40.75270951586305,雿,1575.366603956331,擃,1575.9747011582745,高,641.2036972803377,0728豪雨,違反相關法規露營場,違反區域計畫法佔用國有土地,否,高,維持每 30–60 分鐘巡查邊坡、溪水與道路狀況，準備雨具、照明與通訊設備。,【露營安全提醒】嘉義縣番路鄉「淳風皓月露營區」目前為「加強監測」。主因：雨量偏高 206 mm/24h、距土石流影響範圍 41 m、法規狀態需注意。請持續注意雨勢、溪水與邊坡狀況，先完成撤離路線與聯絡名冊確認。
77,想當年露營區,苗栗縣,泰安鄉,24.3873432673453,120.9185867236,58.2,加強監測,194.3897335097166,669.52,10.51,182.9,南,41.7,29.7,384.0212670343892,擃,293.07551329873974,擃,354.1713518731025,高,4160.497991696295,0728豪雨,違反相關法規露營場,不符合土地管制法規,是,高,維持每 30–60 分鐘巡查邊坡、溪水與道路狀況，準備雨具、照明與通訊設備。,【露營安全提醒】苗栗縣泰安鄉「想當年露營區」目前為「加強監測」。主因：距土石流影響範圍 384 m、鄰近崩塌/警戒範圍、法規狀態需注意。請持續注意雨勢、溪水與邊坡狀況，先完成撤離路線與聯絡名冊確認。
78,博拉廬露營區,南投縣,仁愛鄉,24.0305203,121.1972274,58.1,加強監測,240.0122313204264,1173.85,18.16,359.1,北,0.0,35.4,758.0915889359011,擃,477.0930381916247,擃,699.0644132507823,高,2714.238879217656,丹娜絲颱風、薇帕颱風、0721豪雨,違反相關法規露營場,區域計畫法,是,高,維持每 30–60 分鐘巡查邊坡、溪水與道路狀況，準備雨具、照明與通訊設備。,【露營安全提醒】南投縣仁愛鄉「博拉廬露營區」目前為「加強監測」。主因：雨量偏高 240 mm/24h、鄰近崩塌/警戒範圍、法規狀態需注意。請持續注意雨勢、溪水與邊坡狀況，先完成撤離路線與聯絡名冊確認。
79,那那布荷露營區,苗栗縣,泰安鄉,24.424672,120.919428,58.0,加強監測,191.462527961996,787.55,9.02,277.8,西,0.0,17.6,1597.0632973263191,擃,0.0,銝,0.0,中,8256.176838128818,0728豪雨,違反相關法規露營場,不符合土地管制法規,是,高,維持每 30–60 分鐘巡查邊坡、溪水與道路狀況，準備雨具、照明與通訊設備。,【露營安全提醒】苗栗縣泰安鄉「那那布荷露營區」目前為「加強監測」。主因：鄰近崩塌/警戒範圍、法規狀態需注意。請持續注意雨勢、溪水與邊坡狀況，先完成撤離路線與聯絡名冊確認。
80,馬莎力里露營場,苗栗縣,泰安鄉,24.401024,120.935213,57.9,加強監測,214.642457084937,708.53,27.58,312.0,西北,0.0,53.8,238.28973616288968,蝥閫撖,1133.2345538261466,擃,1385.9726962748884,高,6138.353798082123,0728豪雨,違反相關法規露營場,區域計畫法,是,高,維持每 30–60 分鐘巡查邊坡、溪水與道路狀況，準備雨具、照明與通訊設備。,【露營安全提醒】苗栗縣泰安鄉「馬莎力里露營場」目前為「加強監測」。主因：雨量偏高 215 mm/24h、距土石流影響範圍 238 m、法規狀態需注意。請持續注意雨勢、溪水與邊坡狀況，先完成撤離路線與聯絡名冊確認。
81,好自在露營區,苗栗縣,泰安鄉,24.42313,120.918069,57.9,加強監測,205.43938762266137,764.1,12.28,299.7,西北,0.0,23.9,1507.4751075483348,擃,48.58082124683432,銝,48.58082124683432,中,8070.723055568541,0728豪雨,違反相關法規露營場,不符合土地管制法規,是,高,維持每 30–60 分鐘巡查邊坡、溪水與道路狀況，準備雨具、照明與通訊設備。,【露營安全提醒】苗栗縣泰安鄉「好自在露營區」目前為「加強監測」。主因：雨量偏高 205 mm/24h、鄰近崩塌/警戒範圍、法規狀態需注意。請持續注意雨勢、溪水與邊坡狀況，先完成撤離路線與聯絡名冊確認。
82,禾田露營場,嘉義縣,阿里山鄉,23.4605668434312,120.710069481567,57.8,加強監測,214.8163840814269,1091.62,16.97,174.0,南,55.0,45.2,812.6880283264675,雿,449.2751013854117,擃,842.3790708908947,高,1233.8009009916827,0728豪雨,違反相關法規露營場,違反區域計畫法,是,高,維持每 30–60 分鐘巡查邊坡、溪水與道路狀況，準備雨具、照明與通訊設備。,【露營安全提醒】嘉義縣阿里山鄉「禾田露營場」目前為「加強監測」。主因：雨量偏高 215 mm/24h、鄰近崩塌/警戒範圍、法規狀態需注意。請持續注意雨勢、溪水與邊坡狀況，先完成撤離路線與聯絡名冊確認。
83,天一露營區,嘉義縣,竹崎鄉,23.4875172575768,120.654825554584,57.8,加強監測,212.1317543108407,715.76,19.61,157.9,南,68.4,53.3,8.664995140020077,銝,4084.394172247058,銝,3964.244558357912,中,1316.248151828379,0728豪雨,違反相關法規露營場,違反區域計畫法,否,高,維持每 30–60 分鐘巡查邊坡、溪水與道路狀況，準備雨具、照明與通訊設備。,【露營安全提醒】嘉義縣竹崎鄉「天一露營區」目前為「加強監測」。主因：雨量偏高 212 mm/24h、距土石流影響範圍 9 m、法規狀態需注意。請持續注意雨勢、溪水與邊坡狀況，先完成撤離路線與聯絡名冊確認。
84,大南之美露營區,苗栗縣,大湖鄉,24.405162,120.908965,57.8,加強監測,201.87054224440743,540.77,12.91,294.3,西北,0.0,25.2,837.955028852656,銝,233.04664428762308,銝,238.1169248565137,中,6034.103402959552,0728豪雨,違反相關法規露營場,區域計畫法,否,高,維持每 30–60 分鐘巡查邊坡、溪水與道路狀況，準備雨具、照明與通訊設備。,【露營安全提醒】苗栗縣大湖鄉「大南之美露營區」目前為「加強監測」。主因：雨量偏高 202 mm/24h、鄰近崩塌/警戒範圍、法規狀態需注意。請持續注意雨勢、溪水與邊坡狀況，先完成撤離路線與聯絡名冊確認。
85,頂笨仔露營區(綠野仙蹤),嘉義縣,竹崎鄉,23.4800348315099,120.674114266223,57.5,加強監測,202.76674853272937,929.99,14.59,89.9,東,74.9,44.9,0.0,擃,2556.922938280428,擃,2557.1946779269983,高,1380.0216085541217,0728豪雨,違反相關法規露營場,違反區域計畫法,否,高,維持每 30–60 分鐘巡查邊坡、溪水與道路狀況，準備雨具、照明與通訊設備。,【露營安全提醒】嘉義縣竹崎鄉「頂笨仔露營區(綠野仙蹤)」目前為「加強監測」。主因：雨量偏高 203 mm/24h、坡向 東，迎風暴露較高、距土石流影響範圍 0 m、法規狀態需注意。請持續注意雨勢、溪水與邊坡狀況，先完成撤離路線與聯絡名冊確認。
86,楓李小棧露營區,苗栗縣,泰安鄉,24.42615,120.918613,57.3,加強監測,204.27049404147047,814.26,10.89,271.3,西,0.0,21.2,1461.270374295869,擃,17.422967071844823,銝,17.422967071844823,中,8409.21055845093,0728豪雨,違反相關法規露營場,區域計畫法,是,高,維持每 30–60 分鐘巡查邊坡、溪水與道路狀況，準備雨具、照明與通訊設備。,【露營安全提醒】苗栗縣泰安鄉「楓李小棧露營區」目前為「加強監測」。主因：雨量偏高 204 mm/24h、鄰近崩塌/警戒範圍、法規狀態需注意。請持續注意雨勢、溪水與邊坡狀況，先完成撤離路線與聯絡名冊確認。
87,陌上冬梅露營區,南投縣,信義鄉,23.6887889,120.8637202,57.2,加強監測,230.44500146228543,568.18,20.24,229.6,西南,8.7,41.4,90.19458959853688,蝥閫撖,8047.97050632687,銝,8165.937306214418,中,3340.9460883792653,0728豪雨,違反相關法規露營場,區域計畫法,是,高,維持每 30–60 分鐘巡查邊坡、溪水與道路狀況，準備雨具、照明與通訊設備。,【露營安全提醒】南投縣信義鄉「陌上冬梅露營區」目前為「加強監測」。主因：雨量偏高 230 mm/24h、距土石流影響範圍 90 m、法規狀態需注意。請持續注意雨勢、溪水與邊坡狀況，先完成撤離路線與聯絡名冊確認。
88,烏米的家露營區,新竹縣,尖石鄉,24.682015,121.245171,57.2,加強監測,201.39959556868445,650.6,17.3,183.3,南,47.2,44.1,0.0,擃,3288.8247995729457,擃,3447.7191066212868,高,14193.006852179831,0728豪雨,違反相關法規露營場,不符合土地管制法規,是,高,維持每 30–60 分鐘巡查邊坡、溪水與道路狀況，準備雨具、照明與通訊設備。,【露營安全提醒】新竹縣尖石鄉「烏米的家露營區」目前為「加強監測」。主因：雨量偏高 201 mm/24h、距土石流影響範圍 0 m、法規狀態需注意。請持續注意雨勢、溪水與邊坡狀況，先完成撤離路線與聯絡名冊確認。
89,泰安哈尼,苗栗縣,泰安鄉,24.426951,120.918664,57.2,加強監測,198.4997082999141,818.64,12.04,256.6,西,0.0,23.5,1375.4011242384172,擃,97.19200711303898,銝,97.19200711303898,中,8497.957276743464,0728豪雨,違反相關法規露營場,區域計畫法,是,高,維持每 30–60 分鐘巡查邊坡、溪水與道路狀況，準備雨具、照明與通訊設備。,【露營安全提醒】苗栗縣泰安鄉「泰安哈尼」目前為「加強監測」。主因：鄰近崩塌/警戒範圍、法規狀態需注意。請持續注意雨勢、溪水與邊坡狀況，先完成撤離路線與聯絡名冊確認。
90,石壁露營區,臺中市,和平區,24.167217,120.94529,57.2,加強監測,192.8240588062895,638.63,32.08,166.7,南,61.1,76.0,157.05807999491714,蝥閫撖,17289.50258930952,擃,17296.69944438157,高,4229.986871040163,0728豪雨,違反相關法規露營場,區域計畫法,是,高,維持每 30–60 分鐘巡查邊坡、溪水與道路狀況，準備雨具、照明與通訊設備。,【露營安全提醒】臺中市和平區「石壁露營區」目前為「加強監測」。主因：DEM坡度 32°、距土石流影響範圍 157 m、法規狀態需注意。請持續注意雨勢、溪水與邊坡狀況，先完成撤離路線與聯絡名冊確認。
91,Tama singhu 天使營地,南投縣,信義鄉,23.7827,120.94167,57.1,加強監測,218.2088506302764,682.14,28.84,38.4,東北,32.0,63.3,148.65710561244308,雿,18762.00585347178,銝,19085.525017670567,中,5549.458972061307,0728豪雨,違反相關法規露營場,區域計畫法,是,高,維持每 30–60 分鐘巡查邊坡、溪水與道路狀況，準備雨具、照明與通訊設備。,【露營安全提醒】南投縣信義鄉「Tama singhu 天使營地」目前為「加強監測」。主因：雨量偏高 218 mm/24h、距土石流影響範圍 149 m、法規狀態需注意。請持續注意雨勢、溪水與邊坡狀況，先完成撤離路線與聯絡名冊確認。
92,頂笨仔民宿露營區,嘉義縣,竹崎鄉,23.4832459473553,120.680656723896,57.1,加強監測,205.5091822650204,906.86,6.31,169.0,南,31.1,19.1,83.7307537598261,銝,2082.857755018428,擃,2083.2225571300078,高,672.9629007128725,0728豪雨,違反相關法規露營場,違反區域計畫法,否,高,維持每 30–60 分鐘巡查邊坡、溪水與道路狀況，準備雨具、照明與通訊設備。,【露營安全提醒】嘉義縣竹崎鄉「頂笨仔民宿露營區」目前為「加強監測」。主因：雨量偏高 206 mm/24h、距土石流影響範圍 84 m、法規狀態需注意。請持續注意雨勢、溪水與邊坡狀況，先完成撤離路線與聯絡名冊確認。
93,快樂露營區,苗栗縣,泰安鄉,24.426366186176,120.918679481271,57.0,加強監測,210.64314354190424,814.68,8.5,247.5,西,0.0,16.6,1436.412622254321,擃,37.23754647528483,銝,37.23754647528483,中,8433.749881939386,0728豪雨,違反相關法規露營場,不符合土地管制法規,是,高,維持每 30–60 分鐘巡查邊坡、溪水與道路狀況，準備雨具、照明與通訊設備。,【露營安全提醒】苗栗縣泰安鄉「快樂露營區」目前為「加強監測」。主因：雨量偏高 211 mm/24h、鄰近崩塌/警戒範圍、法規狀態需注意。請持續注意雨勢、溪水與邊坡狀況，先完成撤離路線與聯絡名冊確認。
94,樂沐絲莊園,苗栗縣,泰安鄉,24.397055,120.926678,57.0,加強監測,181.69545752932143,490.35,15.56,335.9,西北,0.0,30.3,703.2337311432412,擃,166.20158501723336,擃,463.8346468867388,高,5413.743522758278,0728豪雨,違反相關法規露營場,不符合土地管制法規,是,高,維持每 30–60 分鐘巡查邊坡、溪水與道路狀況，準備雨具、照明與通訊設備。,【露營安全提醒】苗栗縣泰安鄉「樂沐絲莊園」目前為「加強監測」。主因：鄰近崩塌/警戒範圍、法規狀態需注意。請持續注意雨勢、溪水與邊坡狀況，先完成撤離路線與聯絡名冊確認。
95,莎酷菈露營區,苗栗縣,泰安鄉,24.403008,120.976076,56.9,加強監測,216.8143642367667,1175.54,19.71,196.9,南,35.9,46.3,97.26972726176304,雿,5218.673900922139,擃,5246.480283784889,高,8854.184549578631,0728豪雨,違反相關法規露營場,不符合土地管制法規,是,高,維持每 30–60 分鐘巡查邊坡、溪水與道路狀況，準備雨具、照明與通訊設備。,【露營安全提醒】苗栗縣泰安鄉「莎酷菈露營區」目前為「加強監測」。主因：雨量偏高 217 mm/24h、距土石流影響範圍 97 m、法規狀態需注意。請持續注意雨勢、溪水與邊坡狀況，先完成撤離路線與聯絡名冊確認。
96,朵悠露營區,苗栗縣,泰安鄉,24.3495294465261,120.926315721752,56.7,加強監測,198.52613262080845,720.98,19.87,154.4,東南,71.3,54.4,229.93460597888745,擃,1830.480073519012,擃,1830.480073519012,高,1632.127563096146,0728豪雨,違反相關法規露營場,不符合土地管制法規,是,高,維持每 30–60 分鐘巡查邊坡、溪水與道路狀況，準備雨具、照明與通訊設備。,【露營安全提醒】苗栗縣泰安鄉「朵悠露營區」目前為「加強監測」。主因：坡向 東南，迎風暴露較高、距土石流影響範圍 230 m、法規狀態需注意。請持續注意雨勢、溪水與邊坡狀況，先完成撤離路線與聯絡名冊確認。
97,九份二山連興露營區,南投縣,國姓鄉,23.9641667,120.8439553,56.4,加強監測,231.6364654601748,798.53,23.71,149.8,東南,75.2,62.8,2028.2445544154727,銝,254.774986292277,雿,254.774986292277,低,4309.532483436563,0728豪雨,違反相關法規露營場,未提出露營場申請,否,高,維持每 30–60 分鐘巡查邊坡、溪水與道路狀況，準備雨具、照明與通訊設備。,【露營安全提醒】南投縣國姓鄉「九份二山連興露營區」目前為「加強監測」。主因：雨量偏高 232 mm/24h、坡向 東南，迎風暴露較高、鄰近崩塌/警戒範圍、法規狀態需注意。請持續注意雨勢、溪水與邊坡狀況，先完成撤離路線與聯絡名冊確認。
98,烏嘎彥景觀休閒露營區,苗栗縣,泰安鄉,24.421662,120.923586,56.4,加強監測,212.9572610316245,962.36,16.44,280.6,西,0.0,32.1,1889.263078388524,擃,196.06338781951695,銝,196.06338781951695,中,7989.135905077746,0728豪雨,違反相關法規露營場,不符合土地管制法規,是,高,維持每 30–60 分鐘巡查邊坡、溪水與道路狀況，準備雨具、照明與通訊設備。,【露營安全提醒】苗栗縣泰安鄉「烏嘎彥景觀休閒露營區」目前為「加強監測」。主因：雨量偏高 213 mm/24h、鄰近崩塌/警戒範圍、法規狀態需注意。請持續注意雨勢、溪水與邊坡狀況，先完成撤離路線與聯絡名冊確認。
99,盛香源露營區,臺東縣,太麻里鄉,22.650777,121.019982,56.4,加強監測,164.38521630677454,66.4,15.57,121.7,東南,98.6,52.1,66.59250785777915,擃,1149.1352334755927,銝,1151.2376947614775,中,10268.159426167578,0728豪雨,違反相關法規露營場,無或未標示,是,高,維持每 30–60 分鐘巡查邊坡、溪水與道路狀況，準備雨具、照明與通訊設備。,【露營安全提醒】臺東縣太麻里鄉「盛香源露營區」目前為「加強監測」。主因：坡向 東南，迎風暴露較高、距土石流影響範圍 67 m、法規狀態需注意。請持續注意雨勢、溪水與邊坡狀況，先完成撤離路線與聯絡名冊確認。
100,福壽山農場,臺中市,和平區,24.2451963108244,121.245883706575,56.3,加強監測,254.8547310802861,2239.25,5.74,356.5,北,0.0,11.2,1705.2422992691615,擃,237.968096777954,銝,237.968096777954,中,4692.350154501095,丹娜絲颱風、薇帕颱風、0721豪雨,符合相關法規露營場,無或未標示,是,高,維持每 30–60 分鐘巡查邊坡、溪水與道路狀況，準備雨具、照明與通訊設備。,【露營安全提醒】臺中市和平區「福壽山農場」目前為「加強監測」。主因：雨量偏高 255 mm/24h、鄰近崩塌/警戒範圍、法規狀態需注意。請持續注意雨勢、溪水與邊坡狀況，先完成撤離路線與聯絡名冊確認。
101,蟬說：溪頭生態露營區,南投縣,鹿谷鄉,23.677726,120.797759,56.1,加強監測,242.40285881019935,1103.72,7.0,271.8,西,0.0,13.7,92.40419233462931,銝,1875.28568266288,銝,1886.810465812976,中,3499.911693976965,0728豪雨,符合相關法規露營場,無或未標示,否,高,維持每 30–60 分鐘巡查邊坡、溪水與道路狀況，準備雨具、照明與通訊設備。,【露營安全提醒】南投縣鹿谷鄉「蟬說：溪頭生態露營區」目前為「加強監測」。主因：雨量偏高 242 mm/24h、距土石流影響範圍 92 m、法規狀態需注意。請持續注意雨勢、溪水與邊坡狀況，先完成撤離路線與聯絡名冊確認。
102,烏客藍小團露,苗栗縣,泰安鄉,24.41998,120.92425,56.1,加強監測,207.99160448838072,995.03,22.52,157.4,東南,68.8,59.0,1969.8283021356087,蝥閫撖,390.90170114179824,銝,390.90170114179824,中,7817.838369226907,0728豪雨,違反相關法規露營場,區域計畫法,是,高,維持每 30–60 分鐘巡查邊坡、溪水與道路狀況，準備雨具、照明與通訊設備。,【露營安全提醒】苗栗縣泰安鄉「烏客藍小團露」目前為「加強監測」。主因：雨量偏高 208 mm/24h、鄰近崩塌/警戒範圍、法規狀態需注意。請持續注意雨勢、溪水與邊坡狀況，先完成撤離路線與聯絡名冊確認。
103,放牛吃草露營區,苗栗縣,泰安鄉,24.427021,120.916261,56.1,加強監測,199.5685180628014,772.2,18.76,267.2,西,0.0,36.6,1464.9638949907242,擃,129.71311537786224,銝,129.71311537786224,中,8482.545800691949,0728豪雨,違反相關法規露營場,區域計畫法,是,高,維持每 30–60 分鐘巡查邊坡、溪水與道路狀況，準備雨具、照明與通訊設備。,【露營安全提醒】苗栗縣泰安鄉「放牛吃草露營區」目前為「加強監測」。主因：鄰近崩塌/警戒範圍、法規狀態需注意。請持續注意雨勢、溪水與邊坡狀況，先完成撤離路線與聯絡名冊確認。
104,珍幸福烤肉露營區,桃園市,復興區,24.8110577765015,121.377109441439,56.1,加強監測,176.26854257601133,303.54,30.75,98.2,東,81.8,78.0,141.280161347571,銝,3694.028816942619,銝,3986.214159999316,中,5772.105730503103,0728豪雨,違反相關法規露營場,區域計畫法,是,高,維持每 30–60 分鐘巡查邊坡、溪水與道路狀況，準備雨具、照明與通訊設備。,【露營安全提醒】桃園市復興區「珍幸福烤肉露營區」目前為「加強監測」。主因：DEM坡度 31°、坡向 東，迎風暴露較高、距土石流影響範圍 141 m、法規狀態需注意。請持續注意雨勢、溪水與邊坡狀況，先完成撤離路線與聯絡名冊確認。
105,彩雲露螢谷露營區,苗栗縣,大湖鄉,24.377595,120.871639,55.8,加強監測,166.6616968248139,326.86,31.92,101.0,東,84.2,80.8,226.84559707188427,銝,4271.877563212033,銝,4651.607429568769,中,4854.616406662848,0728豪雨,違反相關法規露營場,區域計畫法,否,高,維持每 30–60 分鐘巡查邊坡、溪水與道路狀況，準備雨具、照明與通訊設備。,【露營安全提醒】苗栗縣大湖鄉「彩雲露螢谷露營區」目前為「加強監測」。主因：DEM坡度 32°、坡向 東，迎風暴露較高、距土石流影響範圍 227 m、法規狀態需注意。請持續注意雨勢、溪水與邊坡狀況，先完成撤離路線與聯絡名冊確認。
106,曲冰嫚遊露營區(里格列營地),南投縣,仁愛鄉,23.928099,121.071538,55.4,加強監測,215.8597207316844,782.63,14.11,181.1,南,49.1,38.3,69.11725912337502,銝,8424.311684762579,擃,8471.730713111547,高,4620.752128014939,丹娜絲颱風、薇帕颱風、0721豪雨,違反相關法規露營場,區域計畫法,是,高,維持每 30–60 分鐘巡查邊坡、溪水與道路狀況，準備雨具、照明與通訊設備。,【露營安全提醒】南投縣仁愛鄉「曲冰嫚遊露營區(里格列營地)」目前為「加強監測」。主因：雨量偏高 216 mm/24h、距土石流影響範圍 69 m、法規狀態需注意。請持續注意雨勢、溪水與邊坡狀況，先完成撤離路線與聯絡名冊確認。
107,綠色奇緣露營區,新竹縣,五峰鄉,24.624322,121.110462,55.3,加強監測,195.91996835096876,517.28,5.08,38.8,東北,13.7,12.9,306.24083397096484,蝥閫撖,467.761683640103,擃,855.8811924864887,高,6680.460811403921,1020豪雨,違反相關法規露營場,不符合土地管制法規,是,高,維持每 30–60 分鐘巡查邊坡、溪水與道路狀況，準備雨具、照明與通訊設備。,【露營安全提醒】新竹縣五峰鄉「綠色奇緣露營區」目前為「加強監測」。主因：距土石流影響範圍 306 m、鄰近崩塌/警戒範圍、法規狀態需注意。請持續注意雨勢、溪水與邊坡狀況，先完成撤離路線與聯絡名冊確認。
108,Kiwi休閒露營區,桃園市,復興區,24.769978,121.355446,55.3,加強監測,180.1705404403992,532.75,21.71,208.8,西南,26.0,48.1,744.2080177058123,蝥閫撖,298.3824938098533,銝,298.3824938098533,中,746.7658933014627,0728豪雨,符合相關法規露營場,無或未標示,是,高,維持每 30–60 分鐘巡查邊坡、溪水與道路狀況，準備雨具、照明與通訊設備。,【露營安全提醒】桃園市復興區「Kiwi休閒露營區」目前為「加強監測」。主因：鄰近崩塌/警戒範圍、法規狀態需注意。請持續注意雨勢、溪水與邊坡狀況，先完成撤離路線與聯絡名冊確認。
109,花田小露露營區,嘉義縣,番路鄉,23.4449101391969,120.606854897186,55.2,加強監測,187.2261595480067,388.26,27.48,224.6,西南,12.8,56.4,495.89273921338577,銝,5248.286547213148,擃,5248.889544848749,高,725.4152972317182,0728豪雨,違反相關法規露營場,違反水土保持法,否,高,維持每 30–60 分鐘巡查邊坡、溪水與道路狀況，準備雨具、照明與通訊設備。,【露營安全提醒】嘉義縣番路鄉「花田小露露營區」目前為「加強監測」。主因：距土石流影響範圍 496 m、法規狀態需注意。請持續注意雨勢、溪水與邊坡狀況，先完成撤離路線與聯絡名冊確認。
110,尤法艾露營區,苗栗縣,泰安鄉,24.42774,120.90972,55.1,加強監測,213.12659397593896,629.37,12.72,327.9,西北,0.0,24.8,1002.3776400800198,擃,243.01553816424143,銝,488.8597450379153,中,8534.48919554732,0728豪雨,違反相關法規露營場,區域計畫法,是,高,維持每 30–60 分鐘巡查邊坡、溪水與道路狀況，準備雨具、照明與通訊設備。,【露營安全提醒】苗栗縣泰安鄉「尤法艾露營區」目前為「加強監測」。主因：雨量偏高 213 mm/24h、鄰近崩塌/警戒範圍、法規狀態需注意。請持續注意雨勢、溪水與邊坡狀況，先完成撤離路線與聯絡名冊確認。
111,山視界露營區,苗栗縣,泰安鄉,24.430445,120.921305,55.1,加強監測,205.8381321116681,859.79,17.89,314.6,西北,0.0,34.9,931.9715354350096,擃,414.2534822449789,銝,414.2534822449789,中,8914.664218849108,0728豪雨,違反相關法規露營場,不符合土地管制法規,是,高,維持每 30–60 分鐘巡查邊坡、溪水與道路狀況，準備雨具、照明與通訊設備。,【露營安全提醒】苗栗縣泰安鄉「山視界露營區」目前為「加強監測」。主因：雨量偏高 206 mm/24h、鄰近崩塌/警戒範圍、法規狀態需注意。請持續注意雨勢、溪水與邊坡狀況，先完成撤離路線與聯絡名冊確認。
112,糯米橋石灶松林露營區,南投縣,國姓鄉,24.0609268,120.9066971,55.0,加強監測,208.26923114714376,368.76,14.15,173.7,南,55.3,39.8,17.598702347392432,擃,12425.073564664948,雿,12425.073564664948,低,3437.873795735993,0728豪雨,違反相關法規露營場,區域計畫法,否,高,維持每 30–60 分鐘巡查邊坡、溪水與道路狀況，準備雨具、照明與通訊設備。,【露營安全提醒】南投縣國姓鄉「糯米橋石灶松林露營區」目前為「加強監測」。主因：雨量偏高 208 mm/24h、距土石流影響範圍 18 m、法規狀態需注意。請持續注意雨勢、溪水與邊坡狀況，先完成撤離路線與聯絡名冊確認。
113,星月秘境休閒農場,南投縣,竹山鎮,23.7382362321051,120.705184337001,55.0,加強監測,201.25785478759497,484.8,20.15,52.1,東北,43.4,48.8,456.2517065307405,雿,7239.211126198927,擃,7300.892365568336,高,505.3354308297049,0728豪雨,符合相關法規露營場,無或未標示,否,高,維持每 30–60 分鐘巡查邊坡、溪水與道路狀況，準備雨具、照明與通訊設備。,【露營安全提醒】南投縣竹山鎮「星月秘境休閒農場」目前為「加強監測」。主因：雨量偏高 201 mm/24h、距土石流影響範圍 456 m、法規狀態需注意。請持續注意雨勢、溪水與邊坡狀況，先完成撤離路線與聯絡名冊確認。
114,扇平山莊十八羅漢山露營區,高雄市,六龜區,22.9707217011312,120.651512138465,55.0,加強監測,196.24527904812123,239.1,0.51,235.3,西南,0.0,1.0,0.0,擃,4413.432429633903,銝,4413.432429633903,中,359.9378166789485,0728豪雨,違反相關法規露營場,農業發展條例、區域計畫法,否,高,維持每 30–60 分鐘巡查邊坡、溪水與道路狀況，準備雨具、照明與通訊設備。,【露營安全提醒】高雄市六龜區「扇平山莊十八羅漢山露營區」目前為「加強監測」。主因：距土石流影響範圍 0 m、法規狀態需注意。請持續注意雨勢、溪水與邊坡狀況，先完成撤離路線與聯絡名冊確認。
115,祥緣莊,桃園市,復興區,24.697673,121.40267,54.9,加強監測,224.41261046502115,971.85,18.79,143.3,東南,80.6,54.4,292.7276978460963,銝,1420.2864970698135,擃,1420.2864970698135,高,8735.063990329661,0728豪雨,違反相關法規露營場,區域計畫法,是,高,維持每 30–60 分鐘巡查邊坡、溪水與道路狀況，準備雨具、照明與通訊設備。,【露營安全提醒】桃園市復興區「祥緣莊」目前為「加強監測」。主因：雨量偏高 224 mm/24h、坡向 東南，迎風暴露較高、距土石流影響範圍 293 m、法規狀態需注意。請持續注意雨勢、溪水與邊坡狀況，先完成撤離路線與聯絡名冊確認。
116,鑽石林,苗栗縣,泰安鄉,24.427447,120.919896,54.9,加強監測,198.96106558161767,843.03,15.58,262.8,西,0.0,30.4,1287.2166946053146,擃,112.89372475956492,銝,112.89372475956492,中,8567.01447726865,0728豪雨,違反相關法規露營場,區域計畫法,是,高,維持每 30–60 分鐘巡查邊坡、溪水與道路狀況，準備雨具、照明與通訊設備。,【露營安全提醒】苗栗縣泰安鄉「鑽石林」目前為「加強監測」。主因：鄰近崩塌/警戒範圍、法規狀態需注意。請持續注意雨勢、溪水與邊坡狀況，先完成撤離路線與聯絡名冊確認。
117,谷燕養鱒場露營區,新竹縣,五峰鄉,24.623884,121.127008,54.9,加強監測,193.04940441388476,497.8,23.69,237.5,西南,2.1,46.7,0.7083029593598238,銝,2004.3186361839,擃,2151.325769002419,高,7965.19513882014,1020豪雨,違反相關法規露營場,區域計畫法,是,高,維持每 30–60 分鐘巡查邊坡、溪水與道路狀況，準備雨具、照明與通訊設備。,【露營安全提醒】新竹縣五峰鄉「谷燕養鱒場露營區」目前為「加強監測」。主因：距土石流影響範圍 1 m、法規狀態需注意。請持續注意雨勢、溪水與邊坡狀況，先完成撤離路線與聯絡名冊確認。
118,飛亞蘭露營區,宜蘭縣,大同鄉,24.538569,121.455694,54.8,加強監測,238.04281886465105,571.26,12.67,304.5,西北,0.0,24.7,70.70388240886288,蝥閫撖,5411.297569530082,銝,5386.37855862054,中,3357.3138483384832,鳳凰颱風,違反相關法規露營場,區域計畫法,是,高,維持每 30–60 分鐘巡查邊坡、溪水與道路狀況，準備雨具、照明與通訊設備。,【露營安全提醒】宜蘭縣大同鄉「飛亞蘭露營區」目前為「加強監測」。主因：雨量偏高 238 mm/24h、距土石流影響範圍 71 m、法規狀態需注意。請持續注意雨勢、溪水與邊坡狀況，先完成撤離路線與聯絡名冊確認。
119,羅老爸的家,嘉義縣,阿里山鄉,23.4601798744581,120.697625659935,54.8,加強監測,218.88096563249997,1059.31,10.06,193.0,南,32.8,26.8,748.4388832968107,雿,405.5259529736523,擃,646.9856345715546,高,2491.3585272003456,0728豪雨,違反相關法規露營場,違反區域計畫法,是,高,維持每 30–60 分鐘巡查邊坡、溪水與道路狀況，準備雨具、照明與通訊設備。,【露營安全提醒】嘉義縣阿里山鄉「羅老爸的家」目前為「加強監測」。主因：雨量偏高 219 mm/24h、鄰近崩塌/警戒範圍、法規狀態需注意。請持續注意雨勢、溪水與邊坡狀況，先完成撤離路線與聯絡名冊確認。
120,玉山星空露營區,南投縣,信義鄉,23.557782,120.922959,54.7,加強監測,235.687474878086,1051.86,32.91,259.5,西,0.0,64.2,318.9681159030973,擃,6650.203968569238,擃,7511.717578961066,高,2179.610392448952,0728豪雨,違反相關法規露營場,無或未標示,是,高,維持每 30–60 分鐘巡查邊坡、溪水與道路狀況，準備雨具、照明與通訊設備。,【露營安全提醒】南投縣信義鄉「玉山星空露營區」目前為「加強監測」。主因：雨量偏高 236 mm/24h、DEM坡度 33°、距土石流影響範圍 319 m、法規狀態需注意。請持續注意雨勢、溪水與邊坡狀況，先完成撤離路線與聯絡名冊確認。
121,南橫梅山口農場露營區,高雄市,桃源區,23.2672648188735,120.823809649504,54.7,加強監測,219.4456138850719,859.13,10.7,106.3,東,79.0,38.2,450.41820085794416,擃,18883.065781426823,銝,18883.065781426823,中,649.3288480643713,楊柳颱風,違反相關法規露營場,區域計畫法,是,高,維持每 30–60 分鐘巡查邊坡、溪水與道路狀況，準備雨具、照明與通訊設備。,【露營安全提醒】高雄市桃源區「南橫梅山口農場露營區」目前為「加強監測」。主因：雨量偏高 219 mm/24h、坡向 東，迎風暴露較高、距土石流影響範圍 450 m、法規狀態需注意。請持續注意雨勢、溪水與邊坡狀況，先完成撤離路線與聯絡名冊確認。
122,晨融雅谷,臺中市,和平區,24.173949,120.97571,54.7,加強監測,199.3372071745948,657.74,21.84,345.5,北,0.0,42.6,71.28034384317468,銝,17053.960474450316,擃,17053.960474450316,高,5661.191352584308,0728豪雨,違反相關法規露營場,區域計畫法,是,高,維持每 30–60 分鐘巡查邊坡、溪水與道路狀況，準備雨具、照明與通訊設備。,【露營安全提醒】臺中市和平區「晨融雅谷」目前為「加強監測」。主因：距土石流影響範圍 71 m、法規狀態需注意。請持續注意雨勢、溪水與邊坡狀況，先完成撤離路線與聯絡名冊確認。
123,地球村休閒農場,南投縣,國姓鄉,24.05221031,120.8798486,54.7,加強監測,198.60004391542645,433.65,15.15,101.7,東,84.7,48.2,491.9381297035701,銝,10448.431311411574,雿,10448.431311411574,低,550.3119242140566,0728豪雨,符合相關法規露營場,無或未標示,否,高,維持每 30–60 分鐘巡查邊坡、溪水與道路狀況，準備雨具、照明與通訊設備。,【露營安全提醒】南投縣國姓鄉「地球村休閒農場」目前為「加強監測」。主因：坡向 東，迎風暴露較高、距土石流影響範圍 492 m、法規狀態需注意。請持續注意雨勢、溪水與邊坡狀況，先完成撤離路線與聯絡名冊確認。
124,梅淮露營區,新竹縣,尖石鄉,24.682936,121.214432,54.7,加強監測,191.45523092118643,393.23,12.02,86.5,東,72.1,39.3,652.7193876252666,擃,408.3754755614161,擃,550.8259512460471,高,15231.846651158105,1020豪雨,違反相關法規露營場,不符合土地管制法規,是,高,維持每 30–60 分鐘巡查邊坡、溪水與道路狀況，準備雨具、照明與通訊設備。,【露營安全提醒】新竹縣尖石鄉「梅淮露營區」目前為「加強監測」。主因：坡向 東，迎風暴露較高、鄰近崩塌/警戒範圍、法規狀態需注意。請持續注意雨勢、溪水與邊坡狀況，先完成撤離路線與聯絡名冊確認。
125,百勝村休閒農場,南投縣,國姓鄉,24.0536831,120.9086985,54.5,加強監測,205.828965287476,390.4,19.49,341.4,北,0.0,38.0,46.59221916187448,雿,11802.453235287769,雿,11802.453235287769,低,3416.8086578537154,0728豪雨,符合相關法規露營場,無或未標示,否,高,維持每 30–60 分鐘巡查邊坡、溪水與道路狀況，準備雨具、照明與通訊設備。,【露營安全提醒】南投縣國姓鄉「百勝村休閒農場」目前為「加強監測」。主因：雨量偏高 206 mm/24h、距土石流影響範圍 47 m、法規狀態需注意。請持續注意雨勢、溪水與邊坡狀況，先完成撤離路線與聯絡名冊確認。
126,花間露休閒露營區,宜蘭縣,員山鄉,24.6962298871908,121.61793933863,54.5,加強監測,202.99618662102003,160.57,16.71,203.1,西南,30.7,39.3,97.71253889449704,銝,19914.176224404997,雿,20316.48001148117,中,20638.180501178005,鳳凰颱風,違反相關法規露營場,區域計畫法,否,高,維持每 30–60 分鐘巡查邊坡、溪水與道路狀況，準備雨具、照明與通訊設備。,【露營安全提醒】宜蘭縣員山鄉「花間露休閒露營區」目前為「加強監測」。主因：雨量偏高 203 mm/24h、距土石流影響範圍 98 m、法規狀態需注意。請持續注意雨勢、溪水與邊坡狀況，先完成撤離路線與聯絡名冊確認。
127,大王山居露營區,臺東縣,卑南鄉,22.687798,121.00704,54.5,加強監測,191.4456463939511,319.45,23.46,358.7,北,0.0,45.7,211.51551858141207,雿,1290.433083111806,銝,1645.2311822958166,中,6696.656913453374,0728豪雨,違反相關法規露營場,區域計畫法,是,高,維持每 30–60 分鐘巡查邊坡、溪水與道路狀況，準備雨具、照明與通訊設備。,【露營安全提醒】臺東縣卑南鄉「大王山居露營區」目前為「加強監測」。主因：距土石流影響範圍 212 m、法規狀態需注意。請持續注意雨勢、溪水與邊坡狀況，先完成撤離路線與聯絡名冊確認。
128,哈露米露營場,臺中市,和平區,24.167634,120.946161,54.3,加強監測,212.39355808520867,630.61,21.74,194.1,南,38.3,50.8,214.54818734697048,蝥閫撖,17250.74047780056,擃,17257.04531440979,高,4324.945534957636,0728豪雨,符合相關法規露營場,無或未標示,是,高,維持每 30–60 分鐘巡查邊坡、溪水與道路狀況，準備雨具、照明與通訊設備。,【露營安全提醒】臺中市和平區「哈露米露營場」目前為「加強監測」。主因：雨量偏高 212 mm/24h、距土石流影響範圍 215 m、法規狀態需注意。請持續注意雨勢、溪水與邊坡狀況，先完成撤離路線與聯絡名冊確認。
129,霞雲歡樂谷,桃園市,復興區,24.813488,121.379794,54.3,加強監測,175.58938720701784,315.89,11.48,139.5,東南,80.1,40.0,0.0,雿,4047.319673243916,銝,4338.350925471781,中,6129.249765085028,0728豪雨,違反相關法規露營場,區域計畫法,是,高,維持每 30–60 分鐘巡查邊坡、溪水與道路狀況，準備雨具、照明與通訊設備。,【露營安全提醒】桃園市復興區「霞雲歡樂谷」目前為「加強監測」。主因：坡向 東南，迎風暴露較高、距土石流影響範圍 0 m、法規狀態需注意。請持續注意雨勢、溪水與邊坡狀況，先完成撤離路線與聯絡名冊確認。
130,虹谷有機農場,南投縣,仁愛鄉,23.9429587,121.0772526,54.2,加強監測,220.534953450826,817.43,15.22,275.0,西,0.0,29.7,69.87389746715061,銝,7383.850813885193,擃,7423.062178205907,高,5583.51549717354,0728豪雨,違反相關法規露營場,農業發展條例,是,高,維持每 30–60 分鐘巡查邊坡、溪水與道路狀況，準備雨具、照明與通訊設備。,【露營安全提醒】南投縣仁愛鄉「虹谷有機農場」目前為「加強監測」。主因：雨量偏高 221 mm/24h、距土石流影響範圍 70 m、法規狀態需注意。請持續注意雨勢、溪水與邊坡狀況，先完成撤離路線與聯絡名冊確認。
131,水云山植物景觀休閒農場,苗栗縣,泰安鄉,24.4209952746427,120.926956637424,54.2,加強監測,205.29936320531985,862.28,14.56,121.6,東南,98.7,50.1,1942.4150426479969,擃,438.23570752251607,銝,438.23570752251607,中,7982.798427798622,0728豪雨,違反相關法規露營場,區域計畫法,是,高,維持每 30–60 分鐘巡查邊坡、溪水與道路狀況，準備雨具、照明與通訊設備。,【露營安全提醒】苗栗縣泰安鄉「水云山植物景觀休閒農場」目前為「加強監測」。主因：雨量偏高 205 mm/24h、坡向 東南，迎風暴露較高、鄰近崩塌/警戒範圍、法規狀態需注意。請持續注意雨勢、溪水與邊坡狀況，先完成撤離路線與聯絡名冊確認。
132,微風山崚露營場,桃園市,復興區,24.692115,121.401655,54.1,加強監測,216.93432822126223,931.8,15.12,282.0,西,0.0,29.5,430.3737335361537,銝,805.1072730656875,擃,805.1072730656875,高,9196.877717190577,0728豪雨,違反相關法規露營場,區域計畫法,是,高,維持每 30–60 分鐘巡查邊坡、溪水與道路狀況，準備雨具、照明與通訊設備。,【露營安全提醒】桃園市復興區「微風山崚露營場」目前為「加強監測」。主因：雨量偏高 217 mm/24h、距土石流影響範圍 430 m、法規狀態需注意。請持續注意雨勢、溪水與邊坡狀況，先完成撤離路線與聯絡名冊確認。
133,谷力農場,桃園市,復興區,24.778675,121.372392,54.1,加強監測,180.28961110213896,593.62,24.13,274.1,西,0.0,47.1,441.0903309919377,蝥閫撖,822.8016207611519,銝,958.8697555013284,中,2505.622409615125,0728豪雨,符合相關法規露營場,尚未設置登記,是,高,維持每 30–60 分鐘巡查邊坡、溪水與道路狀況，準備雨具、照明與通訊設備。,【露營安全提醒】桃園市復興區「谷力農場」目前為「加強監測」。主因：距土石流影響範圍 441 m、法規狀態需注意。請持續注意雨勢、溪水與邊坡狀況，先完成撤離路線與聯絡名冊確認。
134,浚晟茶葉農場,南投縣,國姓鄉,23.9646946,120.8365219,54.0,加強監測,221.82926126953515,1083.65,13.62,162.5,南,64.6,40.8,1917.3927079666853,雿,383.4697509991212,雿,383.4697509991212,低,4936.308423391508,0728豪雨,違反相關法規露營場,農業發展條例,否,高,維持每 30–60 分鐘巡查邊坡、溪水與道路狀況，準備雨具、照明與通訊設備。,【露營安全提醒】南投縣國姓鄉「浚晟茶葉農場」目前為「加強監測」。主因：雨量偏高 222 mm/24h、鄰近崩塌/警戒範圍、法規狀態需注意。請持續注意雨勢、溪水與邊坡狀況，先完成撤離路線與聯絡名冊確認。
135,南庄露露,苗栗縣,南庄鄉,24.572404,120.983186,54.0,加強監測,184.45676321324527,288.41,10.54,86.7,東,63.5,34.5,0.0,擃,10575.310205704262,銝,10629.11603710546,中,8619.870559151484,0728豪雨,違反相關法規露營場,不符合土地管制法規,是,高,維持每 30–60 分鐘巡查邊坡、溪水與道路狀況，準備雨具、照明與通訊設備。,【露營安全提醒】苗栗縣南庄鄉「南庄露露」目前為「加強監測」。主因：距土石流影響範圍 0 m、法規狀態需注意。請持續注意雨勢、溪水與邊坡狀況，先完成撤離路線與聯絡名冊確認。
136,梅山久久露營場,宜蘭縣,冬山鄉,24.6261207088585,121.724469967081,53.9,加強監測,212.83670348826624,213.51,26.55,99.7,東,83.1,70.1,345.5270400622433,雿,21760.20606744536,雿,22901.29316540622,低,16071.285378185376,鳳凰颱風,符合相關法規露營場,無或未標示,否,高,維持每 30–60 分鐘巡查邊坡、溪水與道路狀況，準備雨具、照明與通訊設備。,【露營安全提醒】宜蘭縣冬山鄉「梅山久久露營場」目前為「加強監測」。主因：雨量偏高 213 mm/24h、坡向 東，迎風暴露較高、距土石流影響範圍 346 m、法規狀態需注意。請持續注意雨勢、溪水與邊坡狀況，先完成撤離路線與聯絡名冊確認。
137,和風農場露營區,高雄市,桃源區,23.1843196762065,120.786907052603,53.9,加強監測,200.02875079775492,825.36,4.99,254.0,西,0.0,9.7,379.5765995212995,蝥閫撖,8991.160963020875,銝,8991.160963020875,中,175.53453552392688,0728豪雨,違反相關法規露營場,區域計畫法,是,高,維持每 30–60 分鐘巡查邊坡、溪水與道路狀況，準備雨具、照明與通訊設備。,【露營安全提醒】高雄市桃源區「和風農場露營區」目前為「加強監測」。主因：雨量偏高 200 mm/24h、距土石流影響範圍 380 m、法規狀態需注意。請持續注意雨勢、溪水與邊坡狀況，先完成撤離路線與聯絡名冊確認。
138,小白屋農園,苗栗縣,卓蘭鎮,24.317292,120.845573,53.8,加強監測,186.20813019821267,455.74,18.83,303.9,西北,0.0,36.7,710.7938305318426,蝥閫撖,299.0250539348211,銝,299.0250539348211,中,2336.4347034315697,0728豪雨,違反相關法規露營場,不符合土地管制法規,否,高,維持每 30–60 分鐘巡查邊坡、溪水與道路狀況，準備雨具、照明與通訊設備。,【露營安全提醒】苗栗縣卓蘭鎮「小白屋農園」目前為「加強監測」。主因：鄰近崩塌/警戒範圍、法規狀態需注意。請持續注意雨勢、溪水與邊坡狀況，先完成撤離路線與聯絡名冊確認。
139,舒谷露營區,南投縣,仁愛鄉,24.03042,121.17279,53.7,加強監測,246.26962761874464,1063.98,21.29,121.3,東南,98.9,63.3,969.9645552141488,銝,845.4293669457512,擃,845.4293669457512,高,5193.512349641505,丹娜絲颱風、薇帕颱風、0721豪雨,違反相關法規露營場,區域計畫法,是,高,維持每 30–60 分鐘巡查邊坡、溪水與道路狀況，準備雨具、照明與通訊設備。,【露營安全提醒】南投縣仁愛鄉「舒谷露營區」目前為「加強監測」。主因：雨量偏高 246 mm/24h、坡向 東南，迎風暴露較高、法規狀態需注意。請持續注意雨勢、溪水與邊坡狀況，先完成撤離路線與聯絡名冊確認。
140,CaVa休閒露營區,桃園市,復興區,24.76894,121.355555,53.7,加強監測,192.38746053029385,513.95,16.47,232.4,西南,6.3,33.5,695.2013958640134,蝥閫撖,385.4333963410725,銝,385.4333963410725,中,636.1940046293322,0728豪雨,符合相關法規露營場,尚未設置登記,是,高,維持每 30–60 分鐘巡查邊坡、溪水與道路狀況，準備雨具、照明與通訊設備。,【露營安全提醒】桃園市復興區「CaVa休閒露營區」目前為「加強監測」。主因：鄰近崩塌/警戒範圍、法規狀態需注意。請持續注意雨勢、溪水與邊坡狀況，先完成撤離路線與聯絡名冊確認。
141,汪爸露營區,嘉義縣,阿里山鄉,23.461296800288,120.698564639239,53.6,加強監測,208.2467762667456,1101.58,13.02,245.3,西南,0.0,25.4,596.4259189362105,雿,265.80276251947606,擃,494.4659738396831,高,2381.657801985305,0728豪雨,違反相關法規露營場,違反區域計畫法,是,高,維持每 30–60 分鐘巡查邊坡、溪水與道路狀況，準備雨具、照明與通訊設備。,【露營安全提醒】嘉義縣阿里山鄉「汪爸露營區」目前為「加強監測」。主因：雨量偏高 208 mm/24h、鄰近崩塌/警戒範圍、法規狀態需注意。請持續注意雨勢、溪水與邊坡狀況，先完成撤離路線與聯絡名冊確認。
142,薆繞原山營地露營場,苗栗縣,泰安鄉,24.359936,120.961004,53.6,加強監測,201.9873866681243,666.28,14.1,200.2,南,33.2,34.8,75.79776174243733,蝥閫撖,4357.957307854186,擃,4357.957307854186,高,5253.955752366984,0728豪雨,違反相關法規露營場,區域計畫法,是,高,維持每 30–60 分鐘巡查邊坡、溪水與道路狀況，準備雨具、照明與通訊設備。,【露營安全提醒】苗栗縣泰安鄉「薆繞原山營地露營場」目前為「加強監測」。主因：雨量偏高 202 mm/24h、距土石流影響範圍 76 m、法規狀態需注意。請持續注意雨勢、溪水與邊坡狀況，先完成撤離路線與聯絡名冊確認。
143,露也楓情 (羽松區),苗栗縣,泰安鄉,24.42689,120.91747,53.5,加強監測,214.56903262294009,794.09,7.56,237.1,西南,1.5,15.1,1425.110629998004,擃,121.46077076105938,銝,121.46077076105938,中,8478.870596755944,0728豪雨,違反相關法規露營場,不符合土地管制法規,是,高,維持每 30–60 分鐘巡查邊坡、溪水與道路狀況，準備雨具、照明與通訊設備。,【露營安全提醒】苗栗縣泰安鄉「露也楓情 (羽松區)」目前為「加強監測」。主因：雨量偏高 215 mm/24h、鄰近崩塌/警戒範圍、法規狀態需注意。請持續注意雨勢、溪水與邊坡狀況，先完成撤離路線與聯絡名冊確認。
144,瑪莉溫泉休閒農莊,南投縣,仁愛鄉,24.024158,121.163843,53.4,加強監測,232.9316884676629,1052.32,10.16,320.2,西北,0.0,19.8,153.25394326730128,銝,1903.4829830033304,擃,1903.4829830033304,高,6174.811442343883,丹娜絲颱風、薇帕颱風、0721豪雨,違反相關法規露營場,農業發展條例,是,高,維持每 30–60 分鐘巡查邊坡、溪水與道路狀況，準備雨具、照明與通訊設備。,【露營安全提醒】南投縣仁愛鄉「瑪莉溫泉休閒農莊」目前為「加強監測」。主因：雨量偏高 233 mm/24h、距土石流影響範圍 153 m、法規狀態需注意。請持續注意雨勢、溪水與邊坡狀況，先完成撤離路線與聯絡名冊確認。
145,阿將的家獵人帳,嘉義縣,阿里山鄉,23.4614384000556,120.698071881567,53.4,加強監測,225.28776678430043,1098.44,5.4,175.8,南,24.1,15.8,603.3183801390106,雿,308.1621982812977,擃,523.8960380974102,高,2430.3952474893845,0728豪雨,違反相關法規露營場,違反區域計畫法,是,高,維持每 30–60 分鐘巡查邊坡、溪水與道路狀況，準備雨具、照明與通訊設備。,【露營安全提醒】嘉義縣阿里山鄉「阿將的家獵人帳」目前為「加強監測」。主因：雨量偏高 225 mm/24h、鄰近崩塌/警戒範圍、法規狀態需注意。請持續注意雨勢、溪水與邊坡狀況，先完成撤離路線與聯絡名冊確認。
146,跑馬古道露營區,宜蘭縣,礁溪鄉,24.8436976750639,121.776836321701,53.3,加強監測,211.29300905911327,254.22,26.25,149.2,東南,75.7,67.8,476.601032367452,銝,12757.803996365586,擃,12884.322134629949,高,19287.3570184458,1020豪雨,違反相關法規露營場,違反農業發展條例,否,高,維持每 30–60 分鐘巡查邊坡、溪水與道路狀況，準備雨具、照明與通訊設備。,【露營安全提醒】宜蘭縣礁溪鄉「跑馬古道露營區」目前為「加強監測」。主因：雨量偏高 211 mm/24h、坡向 東南，迎風暴露較高、距土石流影響範圍 477 m、法規狀態需注意。請持續注意雨勢、溪水與邊坡狀況，先完成撤離路線與聯絡名冊確認。
147,橘子園露營區,宜蘭縣,礁溪鄉,24.8403564571796,121.781574206357,53.3,加強監測,202.72770012622155,30.43,6.34,143.3,東南,42.6,21.7,0.0,銝,13341.437451136711,擃,13468.481260179677,高,19631.007421702183,1020豪雨,違反相關法規露營場,區域計畫法,否,高,維持每 30–60 分鐘巡查邊坡、溪水與道路狀況，準備雨具、照明與通訊設備。,【露營安全提醒】宜蘭縣礁溪鄉「橘子園露營區」目前為「加強監測」。主因：雨量偏高 203 mm/24h、距土石流影響範圍 0 m、法規狀態需注意。請持續注意雨勢、溪水與邊坡狀況，先完成撤離路線與聯絡名冊確認。
148,拿哥的秘密基地浪漫露營區,南投縣,信義鄉,23.8245493,120.9417081,53.2,加強監測,217.16839844177645,745.07,12.98,249.9,西,0.0,25.3,0.4136553491492514,擃,16276.860048710074,雿,16548.371505040715,低,5460.653521047368,0728豪雨,違反相關法規露營場,區域計畫法,是,高,維持每 30–60 分鐘巡查邊坡、溪水與道路狀況，準備雨具、照明與通訊設備。,【露營安全提醒】南投縣信義鄉「拿哥的秘密基地浪漫露營區」目前為「加強監測」。主因：雨量偏高 217 mm/24h、距土石流影響範圍 0 m、法規狀態需注意。請持續注意雨勢、溪水與邊坡狀況，先完成撤離路線與聯絡名冊確認。
149,土牧驛健康農莊,苗栗縣,泰安鄉,24.4930962920556,120.945356211955,53.2,加強監測,191.28777068819403,607.76,13.6,267.1,西,0.0,26.5,0.0,擃,5577.458419274776,銝,5577.43810242328,中,5110.926533978546,0728豪雨,違反相關法規露營場,區域計畫法,是,高,維持每 30–60 分鐘巡查邊坡、溪水與道路狀況，準備雨具、照明與通訊設備。,【露營安全提醒】苗栗縣泰安鄉「土牧驛健康農莊」目前為「加強監測」。主因：距土石流影響範圍 0 m、法規狀態需注意。請持續注意雨勢、溪水與邊坡狀況，先完成撤離路線與聯絡名冊確認。
150,山川密境露營區,苗栗縣,南庄鄉,24.59644,121.01898,53.2,加強監測,179.10596190143048,268.49,21.05,13.0,北,10.8,43.4,82.53692167775012,雿,7837.881369609335,銝,7911.316457669072,中,9104.184811418054,1020豪雨,違反相關法規露營場,區域計畫法,是,高,維持每 30–60 分鐘巡查邊坡、溪水與道路狀況，準備雨具、照明與通訊設備。,【露營安全提醒】苗栗縣南庄鄉「山川密境露營區」目前為「加強監測」。主因：距土石流影響範圍 83 m、法規狀態需注意。請持續注意雨勢、溪水與邊坡狀況，先完成撤離路線與聯絡名冊確認。
151,微笑山妍,苗栗縣,大湖鄉,24.42768,120.89189,53.2,加強監測,169.6549377956498,317.63,4.26,270.2,西,0.0,8.3,91.8152299674856,銝,744.4906573064872,銝,2184.832261676098,中,8712.079655501373,0728豪雨,違反相關法規露營場,區域計畫法,否,高,維持每 30–60 分鐘巡查邊坡、溪水與道路狀況，準備雨具、照明與通訊設備。,【露營安全提醒】苗栗縣大湖鄉「微笑山妍」目前為「加強監測」。主因：距土石流影響範圍 92 m、法規狀態需注意。請持續注意雨勢、溪水與邊坡狀況，先完成撤離路線與聯絡名冊確認。
152,大桶山泰雅藝術館(前桶壁角親子露營聖地),新北市,烏來區,24.8835399659029,121.556025052786,53.2,加強監測,168.65895668975327,273.74,24.99,355.4,北,0.0,48.7,63.3118842929909,擃,15048.725747472425,擃,15323.562773280357,高,10103.51624229558,1020豪雨,違反相關法規露營場,土地使用分區管制要點或都市計畫法新北市施行細則/建築法及違章建築處理辦法等規定,是,高,維持每 30–60 分鐘巡查邊坡、溪水與道路狀況，準備雨具、照明與通訊設備。,【露營安全提醒】新北市烏來區「大桶山泰雅藝術館(前桶壁角親子露營聖地)」目前為「加強監測」。主因：距土石流影響範圍 63 m、法規狀態需注意。請持續注意雨勢、溪水與邊坡狀況，先完成撤離路線與聯絡名冊確認。
153,芭喇露營區生態休閒農莊,南投縣,仁愛鄉,23.9069458,121.0520012,53.1,加強監測,246.9974878933149,771.65,14.16,289.1,西,0.0,27.6,185.2913103384146,銝,11238.0764685573,擃,11290.45276681167,高,1614.913026084184,丹娜絲颱風、薇帕颱風、0721豪雨,違反相關法規露營場,農業發展條例,是,高,維持每 30–60 分鐘巡查邊坡、溪水與道路狀況，準備雨具、照明與通訊設備。,【露營安全提醒】南投縣仁愛鄉「芭喇露營區生態休閒農莊」目前為「加強監測」。主因：雨量偏高 247 mm/24h、距土石流影響範圍 185 m、法規狀態需注意。請持續注意雨勢、溪水與邊坡狀況，先完成撤離路線與聯絡名冊確認。
154,山上松亭露營區,臺中市,和平區,24.176691,120.97486,53.1,加強監測,219.12397665941592,687.15,13.66,164.7,南,62.8,40.5,239.22235485788875,銝,16738.358211323743,擃,16738.358211323743,高,5352.594505445972,0728豪雨,違反相關法規露營場,區域計畫法,是,高,維持每 30–60 分鐘巡查邊坡、溪水與道路狀況，準備雨具、照明與通訊設備。,【露營安全提醒】臺中市和平區「山上松亭露營區」目前為「加強監測」。主因：雨量偏高 219 mm/24h、距土石流影響範圍 239 m、法規狀態需注意。請持續注意雨勢、溪水與邊坡狀況，先完成撤離路線與聯絡名冊確認。
155,大塊森林,南投縣,仁愛鄉,24.0797723,120.9873531,53.1,加強監測,215.10681527411495,482.82,22.02,308.8,西北,0.0,42.9,225.5214080781641,雿,19004.572118353128,雿,19004.572118353128,低,1657.351405134337,0728豪雨,違反相關法規露營場,未提出露營場申請,是,高,維持每 30–60 分鐘巡查邊坡、溪水與道路狀況，準備雨具、照明與通訊設備。,【露營安全提醒】南投縣仁愛鄉「大塊森林」目前為「加強監測」。主因：雨量偏高 215 mm/24h、距土石流影響範圍 226 m、法規狀態需注意。請持續注意雨勢、溪水與邊坡狀況，先完成撤離路線與聯絡名冊確認。
156,草地人溫泉會館露營區,高雄市,六龜區,23.0569964641149,120.677099599708,53.0,加強監測,196.51355295451447,362.14,0.53,75.2,東,0.0,1.0,5.900696480029784,擃,2983.846717800004,擃,2324.367074236034,高,513.0536782679857,0728豪雨,違反相關法規露營場,區域計畫法,否,高,維持每 30–60 分鐘巡查邊坡、溪水與道路狀況，準備雨具、照明與通訊設備。,【露營安全提醒】高雄市六龜區「草地人溫泉會館露營區」目前為「加強監測」。主因：距土石流影響範圍 6 m、法規狀態需注意。請持續注意雨勢、溪水與邊坡狀況，先完成撤離路線與聯絡名冊確認。
157,目上景露營區,苗栗縣,泰安鄉,24.427899,120.915256,53.0,加強監測,189.9342491247573,743.66,12.21,268.6,西,0.0,23.8,1433.0991706389568,擃,230.97317183724397,銝,230.97317183724397,中,8571.94483633715,0728豪雨,違反相關法規露營場,不符合土地管制法規,是,高,維持每 30–60 分鐘巡查邊坡、溪水與道路狀況，準備雨具、照明與通訊設備。,【露營安全提醒】苗栗縣泰安鄉「目上景露營區」目前為「加強監測」。主因：鄰近崩塌/警戒範圍、法規狀態需注意。請持續注意雨勢、溪水與邊坡狀況，先完成撤離路線與聯絡名冊確認。
158,拉波波村,基隆市,暖暖區,25.0771888560604,121.755024285939,53.0,加強監測,165.90711302965818,150.27,21.79,204.2,西南,29.8,49.0,32.943826549012165,銝,6324.110577421253,擃,6324.110577421253,高,7264.102273435557,1020豪雨,符合相關法規露營場,無或未標示,否,高,維持每 30–60 分鐘巡查邊坡、溪水與道路狀況，準備雨具、照明與通訊設備。,【露營安全提醒】基隆市暖暖區「拉波波村」目前為「加強監測」。主因：距土石流影響範圍 33 m、法規狀態需注意。請持續注意雨勢、溪水與邊坡狀況，先完成撤離路線與聯絡名冊確認。
159,二本松露營區,苗栗縣,泰安鄉,24.40277,120.979766,52.9,加強監測,218.0883263006945,1211.59,20.55,261.8,西,0.0,40.1,230.3260772397975,雿,5586.563675983975,擃,5596.276589755425,高,9123.12704573632,0728豪雨,違反相關法規露營場,不符合土地管制法規,是,高,維持每 30–60 分鐘巡查邊坡、溪水與道路狀況，準備雨具、照明與通訊設備。,【露營安全提醒】苗栗縣泰安鄉「二本松露營區」目前為「加強監測」。主因：雨量偏高 218 mm/24h、距土石流影響範圍 230 m、法規狀態需注意。請持續注意雨勢、溪水與邊坡狀況，先完成撤離路線與聯絡名冊確認。
160,曲冰岱牧露營區(曲冰金龍露營區),南投縣,仁愛鄉,23.934111,121.075358,52.9,加強監測,214.8899462814493,830.15,12.84,294.8,西北,0.0,25.0,59.05309757327208,銝,7828.099938023078,擃,7872.898500478193,高,5362.617832044523,丹娜絲颱風、薇帕颱風、0721豪雨,違反相關法規露營場,未提出露營場申請,是,高,維持每 30–60 分鐘巡查邊坡、溪水與道路狀況，準備雨具、照明與通訊設備。,【露營安全提醒】南投縣仁愛鄉「曲冰岱牧露營區(曲冰金龍露營區)」目前為「加強監測」。主因：雨量偏高 215 mm/24h、距土石流影響範圍 59 m、法規狀態需注意。請持續注意雨勢、溪水與邊坡狀況，先完成撤離路線與聯絡名冊確認。
161,金崙鄭大姐營地,臺東縣,金峰鄉,22.53297,120.959751,52.9,加強監測,176.7244306247834,50.39,6.16,197.9,南,18.0,16.0,0.0,擃,1720.698243792535,擃,1720.698243792535,高,4900.913817187687,0728豪雨,違反相關法規露營場,區域計畫法,是,高,維持每 30–60 分鐘巡查邊坡、溪水與道路狀況，準備雨具、照明與通訊設備。,【露營安全提醒】臺東縣金峰鄉「金崙鄭大姐營地」目前為「加強監測」。主因：距土石流影響範圍 0 m、法規狀態需注意。請持續注意雨勢、溪水與邊坡狀況，先完成撤離路線與聯絡名冊確認。
162,蕃米力親子營地(同碧湖(福星)農場營地(月牙灣)),新北市,坪林區,24.89309,121.74273,52.9,加強監測,164.5514034615402,294.37,36.36,91.8,東,76.5,87.7,300.10993919209056,銝,6329.96698072878,擃,6459.573391061095,高,14276.22545051622,1020豪雨,違反相關法規露營場,建築法及違章建築處理辦法等規定,否,高,維持每 30–60 分鐘巡查邊坡、溪水與道路狀況，準備雨具、照明與通訊設備。,【露營安全提醒】新北市坪林區「蕃米力親子營地(同碧湖(福星)農場營地(月牙灣))」目前為「加強監測」。主因：DEM坡度 36°、坡向 東，迎風暴露較高、距土石流影響範圍 300 m、法規狀態需注意。請持續注意雨勢、溪水與邊坡狀況，先完成撤離路線與聯絡名冊確認。
163,浦楓露營區,新竹縣,尖石鄉,24.642186,121.277601,52.8,加強監測,238.65380389300267,1167.09,18.65,156.6,東南,69.5,51.7,416.604636387837,擃,2469.4300777994617,擃,2751.231327671412,高,15449.211785194277,0728豪雨,違反相關法規露營場,不符合土地管制法規,是,高,維持每 30–60 分鐘巡查邊坡、溪水與道路狀況，準備雨具、照明與通訊設備。,【露營安全提醒】新竹縣尖石鄉「浦楓露營區」目前為「加強監測」。主因：雨量偏高 239 mm/24h、距土石流影響範圍 417 m、法規狀態需注意。請持續注意雨勢、溪水與邊坡狀況，先完成撤離路線與聯絡名冊確認。
164,舒活露營區,新竹縣,尖石鄉,24.739899,121.254257,52.8,加強監測,208.00742028967716,490.27,13.8,93.6,東,78.0,44.1,204.55561420930275,擃,7894.014279274201,擃,8034.982568228876,高,10394.625898616325,0728豪雨,違反相關法規露營場,不符合土地管制法規,是,高,維持每 30–60 分鐘巡查邊坡、溪水與道路狀況，準備雨具、照明與通訊設備。,【露營安全提醒】新竹縣尖石鄉「舒活露營區」目前為「加強監測」。主因：雨量偏高 208 mm/24h、坡向 東，迎風暴露較高、距土石流影響範圍 205 m、法規狀態需注意。請持續注意雨勢、溪水與邊坡狀況，先完成撤離路線與聯絡名冊確認。
165,北港溪沙八渡假村,南投縣,國姓鄉,24.0624419,120.9345423,52.8,加強監測,200.57173959832085,370.32,6.68,170.3,南,32.3,20.1,0.0,雿,14025.305608005205,雿,14025.305608005205,低,5838.381487389175,0728豪雨,違反相關法規露營場,區域計畫法,否,高,維持每 30–60 分鐘巡查邊坡、溪水與道路狀況，準備雨具、照明與通訊設備。,【露營安全提醒】南投縣國姓鄉「北港溪沙八渡假村」目前為「加強監測」。主因：雨量偏高 201 mm/24h、距土石流影響範圍 0 m、法規狀態需注意。請持續注意雨勢、溪水與邊坡狀況，先完成撤離路線與聯絡名冊確認。
166,尤巴斯露營區,苗栗縣,泰安鄉,24.4298441340147,120.911022611953,52.8,加強監測,193.0940800854165,686.94,21.97,210.6,西南,24.5,48.2,1254.128006467728,擃,469.0868095010656,銝,576.88173536043,中,8768.86937525949,0728豪雨,違反相關法規露營場,不符合土地管制法規,是,高,維持每 30–60 分鐘巡查邊坡、溪水與道路狀況，準備雨具、照明與通訊設備。,【露營安全提醒】苗栗縣泰安鄉「尤巴斯露營區」目前為「加強監測」。主因：鄰近崩塌/警戒範圍、法規狀態需注意。請持續注意雨勢、溪水與邊坡狀況，先完成撤離路線與聯絡名冊確認。
167,拉芙蘭櫻花農場露營區,高雄市,桃源區,23.2450791111317,120.812722942196,52.7,加強監測,210.85666604659136,734.68,5.6,45.3,東北,17.6,14.8,0.0,雿,16177.609220011276,銝,16177.609220011276,中,1604.7810137229826,0728豪雨,違反相關法規露營場,區域計畫法,是,高,維持每 30–60 分鐘巡查邊坡、溪水與道路狀況，準備雨具、照明與通訊設備。,【露營安全提醒】高雄市桃源區「拉芙蘭櫻花農場露營區」目前為「加強監測」。主因：雨量偏高 211 mm/24h、距土石流影響範圍 0 m、法規狀態需注意。請持續注意雨勢、溪水與邊坡狀況，先完成撤離路線與聯絡名冊確認。
168,哈娜露營區,新竹縣,五峰鄉,24.621739,121.110529,52.6,加強監測,206.4208585630548,601.37,7.82,44.0,東北,23.9,20.5,540.1987008631439,蝥閫撖,459.3638663906547,擃,679.3143779167457,高,6892.765421529975,1020豪雨,違反相關法規露營場,區域計畫法,是,高,維持每 30–60 分鐘巡查邊坡、溪水與道路狀況，準備雨具、照明與通訊設備。,【露營安全提醒】新竹縣五峰鄉「哈娜露營區」目前為「加強監測」。主因：雨量偏高 206 mm/24h、鄰近崩塌/警戒範圍、法規狀態需注意。請持續注意雨勢、溪水與邊坡狀況，先完成撤離路線與聯絡名冊確認。
169,斯摩亞露營地,新竹縣,關西鎮,24.779873,121.250748,52.6,加強監測,193.412380076699,289.64,13.1,195.8,南,36.8,33.6,16.043241383326684,銝,10573.911740388829,銝,10573.911740388829,中,10589.952009643966,0728豪雨,違反相關法規露營場,不符合土地管制法規,是,高,維持每 30–60 分鐘巡查邊坡、溪水與道路狀況，準備雨具、照明與通訊設備。,【露營安全提醒】新竹縣關西鎮「斯摩亞露營地」目前為「加強監測」。主因：距土石流影響範圍 16 m、法規狀態需注意。請持續注意雨勢、溪水與邊坡狀況，先完成撤離路線與聯絡名冊確認。
170,吉巴谷露營區,高雄市,那瑪夏區,23.2600910085762,120.702852967307,52.6,加強監測,186.765859951348,595.49,6.97,60.3,東北,29.2,20.0,129.53574339953303,雿,14593.43198157646,銝,15841.337098185606,中,559.8539571936776,0728豪雨,違反相關法規露營場,區域計畫法,是,高,維持每 30–60 分鐘巡查邊坡、溪水與道路狀況，準備雨具、照明與通訊設備。,【露營安全提醒】高雄市那瑪夏區「吉巴谷露營區」目前為「加強監測」。主因：距土石流影響範圍 130 m、法規狀態需注意。請持續注意雨勢、溪水與邊坡狀況，先完成撤離路線與聯絡名冊確認。
171,馬赫坡9號秘境(原馬赫坡露營區),南投縣,仁愛鄉,24.01666,121.18733,52.4,加強監測,240.5079370176828,1127.53,16.81,276.8,西,0.0,32.8,460.89769346348,擃,1153.8504395838609,擃,1276.2730476750717,高,4119.519023474206,丹娜絲颱風、薇帕颱風、0721豪雨,違反相關法規露營場,區域計畫法,是,高,維持每 30–60 分鐘巡查邊坡、溪水與道路狀況，準備雨具、照明與通訊設備。,【露營安全提醒】南投縣仁愛鄉「馬赫坡9號秘境(原馬赫坡露營區)」目前為「加強監測」。主因：雨量偏高 241 mm/24h、距土石流影響範圍 461 m、法規狀態需注意。請持續注意雨勢、溪水與邊坡狀況，先完成撤離路線與聯絡名冊確認。
172,春陽.觀休閒露營區(觀溫泉營地),南投縣,仁愛鄉,24.02618,121.16926,52.3,加強監測,234.89408128015324,1083.68,17.93,328.7,西北,0.0,35.0,477.91226103010825,銝,1308.7231651316886,擃,1308.7231651316886,高,5596.625750881478,丹娜絲颱風、薇帕颱風、0721豪雨,違反相關法規露營場,區域計畫法,是,高,維持每 30–60 分鐘巡查邊坡、溪水與道路狀況，準備雨具、照明與通訊設備。,【露營安全提醒】南投縣仁愛鄉「春陽.觀休閒露營區(觀溫泉營地)」目前為「加強監測」。主因：雨量偏高 235 mm/24h、距土石流影響範圍 478 m、法規狀態需注意。請持續注意雨勢、溪水與邊坡狀況，先完成撤離路線與聯絡名冊確認。
173,布耶特景觀營地,苗栗縣,泰安鄉,24.421009,120.924102,52.3,加強監測,220.05184572810464,981.26,16.74,302.1,西北,0.0,32.6,1963.7849345679356,擃,276.1960611374993,銝,276.1960611374993,中,7927.158324549759,0728豪雨,違反相關法規露營場,不符合土地管制法規,是,高,維持每 30–60 分鐘巡查邊坡、溪水與道路狀況，準備雨具、照明與通訊設備。,【露營安全提醒】苗栗縣泰安鄉「布耶特景觀營地」目前為「加強監測」。主因：雨量偏高 220 mm/24h、鄰近崩塌/警戒範圍、法規狀態需注意。請持續注意雨勢、溪水與邊坡狀況，先完成撤離路線與聯絡名冊確認。
174,長壽天然農場露營區,南投縣,中寮鄉,23.9151358,120.8143417,52.3,加強監測,205.02271359569164,419.94,13.85,154.5,東南,71.2,42.7,212.9323403528492,雿,4941.652524786656,雿,4943.849995920571,低,4001.340476940693,0728豪雨,違反相關法規露營場,區域計畫法,否,高,維持每 30–60 分鐘巡查邊坡、溪水與道路狀況，準備雨具、照明與通訊設備。,【露營安全提醒】南投縣中寮鄉「長壽天然農場露營區」目前為「加強監測」。主因：雨量偏高 205 mm/24h、坡向 東南，迎風暴露較高、距土石流影響範圍 213 m、法規狀態需注意。請持續注意雨勢、溪水與邊坡狀況，先完成撤離路線與聯絡名冊確認。
175,趣露營 GOLY,南投縣,國姓鄉,24.0517339,120.8470136,52.3,加強監測,202.2536693183521,357.21,16.34,66.9,東北,55.8,44.1,135.0653567757248,銝,9845.880862245029,雿,9845.880862245029,低,1183.0588548061703,0728豪雨,違反相關法規露營場,區域計畫法,否,高,維持每 30–60 分鐘巡查邊坡、溪水與道路狀況，準備雨具、照明與通訊設備。,【露營安全提醒】南投縣國姓鄉「趣露營 GOLY」目前為「加強監測」。主因：雨量偏高 202 mm/24h、距土石流影響範圍 135 m、法規狀態需注意。請持續注意雨勢、溪水與邊坡狀況，先完成撤離路線與聯絡名冊確認。
176,得恩谷生態民宿,高雄市,茂林區,22.8968107458639,120.676277056738,52.3,加強監測,195.60481843878307,244.32,8.88,313.5,西北,0.0,17.3,1204.3341907116449,擃,113.34118668539304,銝,1033.1972961237311,中,700.7710316014841,0728豪雨,違反相關法規露營場,區域計畫法,是,高,維持每 30–60 分鐘巡查邊坡、溪水與道路狀況，準備雨具、照明與通訊設備。,【露營安全提醒】高雄市茂林區「得恩谷生態民宿」目前為「加強監測」。主因：鄰近崩塌/警戒範圍、法規狀態需注意。請持續注意雨勢、溪水與邊坡狀況，先完成撤離路線與聯絡名冊確認。
177,水之定莊園,宜蘭縣,大同鄉,24.700327,121.610145,52.3,加強監測,193.5108026872701,192.37,6.7,71.4,東,33.2,20.4,0.0,銝,20008.86023471612,雿,20306.55421370479,中,20386.695820995054,鳳凰颱風,違反相關法規露營場,違反農業發展條例,是,高,維持每 30–60 分鐘巡查邊坡、溪水與道路狀況，準備雨具、照明與通訊設備。,【露營安全提醒】宜蘭縣大同鄉「水之定莊園」目前為「加強監測」。主因：距土石流影響範圍 0 m、法規狀態需注意。請持續注意雨勢、溪水與邊坡狀況，先完成撤離路線與聯絡名冊確認。
178,那結山露營區,桃園市,復興區,24.775215,121.328455,52.3,加強監測,190.1404985657117,716.06,25.83,305.0,西北,0.0,50.4,154.50515604466963,擃,2699.602736929649,銝,2699.602736929649,中,2895.770875757661,0728豪雨,違反相關法規露營場,農業發展條例,是,高,維持每 30–60 分鐘巡查邊坡、溪水與道路狀況，準備雨具、照明與通訊設備。,【露營安全提醒】桃園市復興區「那結山露營區」目前為「加強監測」。主因：距土石流影響範圍 155 m、法規狀態需注意。請持續注意雨勢、溪水與邊坡狀況，先完成撤離路線與聯絡名冊確認。
179,成功天闊露營區,臺東縣,成功鎮,23.093396,121.347058,52.3,加強監測,164.62529018665057,182.37,12.11,119.2,東南,99.3,45.5,77.63463839628076,雿,10880.685044420192,銝,10880.685044420192,中,5968.819372028469,樺加沙颱風,違反相關法規露營場,區域計畫法,是,高,維持每 30–60 分鐘巡查邊坡、溪水與道路狀況，準備雨具、照明與通訊設備。,【露營安全提醒】臺東縣成功鎮「成功天闊露營區」目前為「加強監測」。主因：坡向 東南，迎風暴露較高、距土石流影響範圍 78 m、法規狀態需注意。請持續注意雨勢、溪水與邊坡狀況，先完成撤離路線與聯絡名冊確認。
180,龍泉營地,南投縣,埔里鎮,23.9261682,121.0039022,52.2,加強監測,212.5351232250359,564.95,5.62,282.1,西,0.0,11.0,0.0,擃,14967.162819269275,雿,15115.96997154301,高,3808.1928251709032,0728豪雨,違反相關法規露營場,農業發展條例,否,高,維持每 30–60 分鐘巡查邊坡、溪水與道路狀況，準備雨具、照明與通訊設備。,【露營安全提醒】南投縣埔里鎮「龍泉營地」目前為「加強監測」。主因：雨量偏高 213 mm/24h、距土石流影響範圍 0 m、法規狀態需注意。請持續注意雨勢、溪水與邊坡狀況，先完成撤離路線與聯絡名冊確認。
181,谷露瑪哈露營區,高雄市,那瑪夏區,23.21432,120.69029,52.2,加強監測,204.03310685713663,523.78,4.11,218.0,西南,6.3,9.4,208.85909279975127,擃,11611.352443328638,銝,12174.639963999343,中,747.6911745631511,0728豪雨,符合相關法規露營場,無或未標示,是,高,維持每 30–60 分鐘巡查邊坡、溪水與道路狀況，準備雨具、照明與通訊設備。,【露營安全提醒】高雄市那瑪夏區「谷露瑪哈露營區」目前為「加強監測」。主因：雨量偏高 204 mm/24h、距土石流影響範圍 209 m、法規狀態需注意。請持續注意雨勢、溪水與邊坡狀況，先完成撤離路線與聯絡名冊確認。
182,野放巴蒂露營區,南投縣,信義鄉,23.7936375666144,120.951180495501,52.2,加強監測,203.5280147561383,434.75,10.87,208.0,西南,24.2,26.5,45.86235462735373,擃,19703.03745847913,雿,19983.94367275585,低,6083.874468787377,0728豪雨,違反相關法規露營場,區域計畫法,是,高,維持每 30–60 分鐘巡查邊坡、溪水與道路狀況，準備雨具、照明與通訊設備。,【露營安全提醒】南投縣信義鄉「野放巴蒂露營區」目前為「加強監測」。主因：雨量偏高 204 mm/24h、距土石流影響範圍 46 m、法規狀態需注意。請持續注意雨勢、溪水與邊坡狀況，先完成撤離路線與聯絡名冊確認。
183,十七哩園藝露營區 （谷關驛棧）,臺中市,和平區,24.1689739681142,120.960707753181,52.2,加強監測,200.52168334529992,640.92,25.48,147.2,東南,77.3,66.7,479.9294052315511,擃,17283.816502423037,擃,17283.816502423037,高,5659.318690447317,0728豪雨,違反相關法規露營場,區域計畫法,是,高,維持每 30–60 分鐘巡查邊坡、溪水與道路狀況，準備雨具、照明與通訊設備。,【露營安全提醒】臺中市和平區「十七哩園藝露營區 （谷關驛棧）」目前為「加強監測」。主因：雨量偏高 201 mm/24h、坡向 東南，迎風暴露較高、距土石流影響範圍 480 m、法規狀態需注意。請持續注意雨勢、溪水與邊坡狀況，先完成撤離路線與聯絡名冊確認。
184,陶然山莊,苗栗縣,南庄鄉,24.535236,120.962299,52.1,加強監測,186.4111858801821,509.54,10.91,76.4,東,57.9,34.0,70.96500844182695,雿,10549.359660660106,銝,10549.339404697168,中,5058.201837379672,0728豪雨,違反相關法規露營場,不符合土地管制法規,是,高,維持每 30–60 分鐘巡查邊坡、溪水與道路狀況，準備雨具、照明與通訊設備。,【露營安全提醒】苗栗縣南庄鄉「陶然山莊」目前為「加強監測」。主因：距土石流影響範圍 71 m、法規狀態需注意。請持續注意雨勢、溪水與邊坡狀況，先完成撤離路線與聯絡名冊確認。
185,星野天空露營區,苗栗縣,泰安鄉,24.429228,120.921059,52.0,加強監測,218.04716562848097,860.66,16.33,249.9,西,0.0,31.8,1069.046095901424,擃,282.4398068680629,銝,282.4398068680629,中,8777.752057590827,0728豪雨,違反相關法規露營場,不符合土地管制法規,是,高,維持每 30–60 分鐘巡查邊坡、溪水與道路狀況，準備雨具、照明與通訊設備。,【露營安全提醒】苗栗縣泰安鄉「星野天空露營區」目前為「加強監測」。主因：雨量偏高 218 mm/24h、鄰近崩塌/警戒範圍、法規狀態需注意。請持續注意雨勢、溪水與邊坡狀況，先完成撤離路線與聯絡名冊確認。
186,道時尚悠然渡假山莊,高雄市,六龜區,23.0334576300039,120.663635751651,52.0,加強監測,168.1266257931804,329.84,1.03,123.7,東南,0.0,2.0,62.35170530411577,擃,554.7891691057903,銝,748.3448962700609,中,928.9208602791582,0728豪雨,違反相關法規露營場,農業發展條例、區域計畫法,否,高,維持每 30–60 分鐘巡查邊坡、溪水與道路狀況，準備雨具、照明與通訊設備。,【露營安全提醒】高雄市六龜區「道時尚悠然渡假山莊」目前為「加強監測」。主因：距土石流影響範圍 62 m、法規狀態需注意。請持續注意雨勢、溪水與邊坡狀況，先完成撤離路線與聯絡名冊確認。
187,幸埔森農場,南投縣,埔里鎮,23.9229739,121.0071906,51.9,加強監測,218.870306995914,620.79,9.06,249.4,西,0.0,17.7,79.29093478384173,擃,14834.987498220657,擃,14876.429180420171,高,3892.7395878895886,0728豪雨,違反相關法規露營場,未提出露營場申請,否,高,維持每 30–60 分鐘巡查邊坡、溪水與道路狀況，準備雨具、照明與通訊設備。,【露營安全提醒】南投縣埔里鎮「幸埔森農場」目前為「加強監測」。主因：雨量偏高 219 mm/24h、距土石流影響範圍 79 m、法規狀態需注意。請持續注意雨勢、溪水與邊坡狀況，先完成撤離路線與聯絡名冊確認。
188,渡露灣民宿露營區,高雄市,茂林區,22.905776230788,120.688502867299,51.8,加強監測,194.82180160934308,396.26,7.34,65.3,東北,33.3,21.6,742.5380897517656,擃,412.0960584735406,銝,830.1436007054831,中,1409.5100703484047,0728豪雨,違反相關法規露營場,區域計畫法,是,高,維持每 30–60 分鐘巡查邊坡、溪水與道路狀況，準備雨具、照明與通訊設備。,【露營安全提醒】高雄市茂林區「渡露灣民宿露營區」目前為「加強監測」。主因：鄰近崩塌/警戒範圍、法規狀態需注意。請持續注意雨勢、溪水與邊坡狀況，先完成撤離路線與聯絡名冊確認。
189,森林烈人,南投縣,仁愛鄉,23.918829,121.046008,51.7,加強監測,229.13905273735108,814.97,8.73,158.1,南,49.7,28.0,200.56172142897344,擃,11218.640961504823,擃,11265.940462598854,高,2246.104855002771,丹娜絲颱風、薇帕颱風、0721豪雨,違反相關法規露營場,區域計畫法,是,高,維持每 30–60 分鐘巡查邊坡、溪水與道路狀況，準備雨具、照明與通訊設備。,【露營安全提醒】南投縣仁愛鄉「森林烈人」目前為「加強監測」。主因：雨量偏高 229 mm/24h、距土石流影響範圍 201 m、法規狀態需注意。請持續注意雨勢、溪水與邊坡狀況，先完成撤離路線與聯絡名冊確認。
190,倉伯露營區,嘉義縣,阿里山鄉,23.461189484263,120.698251650879,51.7,加強監測,222.6040076811836,1099.0,4.04,242.9,西南,0.0,7.9,620.0653085476571,雿,299.8946876620784,擃,527.1957776857189,高,2414.621351960304,0728豪雨,違反相關法規露營場,違反區域計畫法,是,高,維持每 30–60 分鐘巡查邊坡、溪水與道路狀況，準備雨具、照明與通訊設備。,【露營安全提醒】嘉義縣阿里山鄉「倉伯露營區」目前為「加強監測」。主因：雨量偏高 223 mm/24h、鄰近崩塌/警戒範圍、法規狀態需注意。請持續注意雨勢、溪水與邊坡狀況，先完成撤離路線與聯絡名冊確認。
191,石盤阬露營區,南投縣,鹿谷鄉,23.7569613,120.7926819,51.7,加強監測,189.01741099706044,361.05,10.56,145.4,東南,69.4,35.9,279.5497936976221,銝,5914.5891811176,銝,6522.509105452729,高,785.248117457701,0728豪雨,違反相關法規露營場,區域計畫法,否,高,維持每 30–60 分鐘巡查邊坡、溪水與道路狀況，準備雨具、照明與通訊設備。,【露營安全提醒】南投縣鹿谷鄉「石盤阬露營區」目前為「加強監測」。主因：距土石流影響範圍 280 m、法規狀態需注意。請持續注意雨勢、溪水與邊坡狀況，先完成撤離路線與聯絡名冊確認。
192,田秘的家露營區,新竹縣,五峰鄉,24.653025,121.131241,51.7,加強監測,178.78292650344693,267.41,11.31,338.1,北,0.0,22.1,1056.5530648080312,擃,213.244720115844,銝,213.244720115844,中,6930.95452426362,1020豪雨,違反相關法規露營場,不符合土地管制法規,是,高,維持每 30–60 分鐘巡查邊坡、溪水與道路狀況，準備雨具、照明與通訊設備。,【露營安全提醒】新竹縣五峰鄉「田秘的家露營區」目前為「加強監測」。主因：鄰近崩塌/警戒範圍、法規狀態需注意。請持續注意雨勢、溪水與邊坡狀況，先完成撤離路線與聯絡名冊確認。
193,吟玖鄉溫泉別館,南投縣,信義鄉,23.5660195,120.92006,51.6,加強監測,232.80306586694203,1047.92,13.33,271.1,西,0.0,26.0,113.5231725844382,擃,6714.756793701983,擃,7571.935001468417,高,2037.1546441150651,0728豪雨,違反相關法規露營場,農業發展條例,是,高,維持每 30–60 分鐘巡查邊坡、溪水與道路狀況，準備雨具、照明與通訊設備。,【露營安全提醒】南投縣信義鄉「吟玖鄉溫泉別館」目前為「加強監測」。主因：雨量偏高 233 mm/24h、距土石流影響範圍 114 m、法規狀態需注意。請持續注意雨勢、溪水與邊坡狀況，先完成撤離路線與聯絡名冊確認。
194,光華露營區,嘉義縣,竹崎鄉,23.4798055104182,120.676090868076,51.6,加強監測,223.1317711204585,908.96,8.61,102.6,東,61.3,30.3,113.2598091591646,擃,2358.8399233875048,擃,2359.125781090081,高,1192.1096029645537,0728豪雨,違反相關法規露營場,違反區域計畫法,否,高,維持每 30–60 分鐘巡查邊坡、溪水與道路狀況，準備雨具、照明與通訊設備。,【露營安全提醒】嘉義縣竹崎鄉「光華露營區」目前為「加強監測」。主因：雨量偏高 223 mm/24h、距土石流影響範圍 113 m、法規狀態需注意。請持續注意雨勢、溪水與邊坡狀況，先完成撤離路線與聯絡名冊確認。
195,賴家古厝賞梅露營區,高雄市,六龜區,23.10982691,120.7319006,51.6,加強監測,218.77739978604623,817.31,8.24,305.4,西北,0.0,16.1,2613.8511554116253,擃,222.6478287295268,銝,358.3037825051387,中,404.86234016878814,0728豪雨,違反相關法規露營場,未依露營場管理要點申請登記,否,高,維持每 30–60 分鐘巡查邊坡、溪水與道路狀況，準備雨具、照明與通訊設備。,【露營安全提醒】高雄市六龜區「賴家古厝賞梅露營區」目前為「加強監測」。主因：雨量偏高 219 mm/24h、鄰近崩塌/警戒範圍、法規狀態需注意。請持續注意雨勢、溪水與邊坡狀況，先完成撤離路線與聯絡名冊確認。
196,原心小團露,苗栗縣,泰安鄉,24.42857,120.91121,51.6,加強監測,213.3506012927301,669.84,9.4,145.5,東南,61.7,31.9,1178.2103309292022,擃,327.72155717802,銝,450.84290849275794,中,8628.136466687638,0728豪雨,違反相關法規露營場,不符合土地管制法規,是,高,維持每 30–60 分鐘巡查邊坡、溪水與道路狀況，準備雨具、照明與通訊設備。,【露營安全提醒】苗栗縣泰安鄉「原心小團露」目前為「加強監測」。主因：雨量偏高 213 mm/24h、鄰近崩塌/警戒範圍、法規狀態需注意。請持續注意雨勢、溪水與邊坡狀況，先完成撤離路線與聯絡名冊確認。
197,覓境露營x行者咖啡,南投縣,國姓鄉,24.0582624,120.9177878,51.6,加強監測,207.0939747698979,363.48,4.26,30.4,東北,9.0,10.3,0.0,擃,12700.020714475811,雿,12700.020714475811,低,4347.137962411595,0728豪雨,違反相關法規露營場,農業發展條例,否,高,維持每 30–60 分鐘巡查邊坡、溪水與道路狀況，準備雨具、照明與通訊設備。,【露營安全提醒】南投縣國姓鄉「覓境露營x行者咖啡」目前為「加強監測」。主因：雨量偏高 207 mm/24h、距土石流影響範圍 0 m、法規狀態需注意。請持續注意雨勢、溪水與邊坡狀況，先完成撤離路線與聯絡名冊確認。
198,虹杉露營區,苗栗縣,泰安鄉,24.422508,120.917883,51.6,加強監測,205.90726037118816,774.23,4.44,264.5,西,0.0,8.7,1463.9925314553298,擃,111.44401660000048,銝,111.44401660000048,中,8000.214688159848,0728豪雨,違反相關法規露營場,不符合土地管制法規,是,高,維持每 30–60 分鐘巡查邊坡、溪水與道路狀況，準備雨具、照明與通訊設備。,【露營安全提醒】苗栗縣泰安鄉「虹杉露營區」目前為「加強監測」。主因：雨量偏高 206 mm/24h、鄰近崩塌/警戒範圍、法規狀態需注意。請持續注意雨勢、溪水與邊坡狀況，先完成撤離路線與聯絡名冊確認。
199,苗栗泰安UP 露營區,苗栗縣,泰安鄉,24.448718,120.915978,51.6,加強監測,197.14258801305024,437.66,16.08,196.5,南,36.3,39.3,1070.76555851128,擃,323.64780242912315,銝,456.749443474376,中,7645.677003769219,0728豪雨,違反相關法規露營場,不符合土地管制法規,是,高,維持每 30–60 分鐘巡查邊坡、溪水與道路狀況，準備雨具、照明與通訊設備。,【露營安全提醒】苗栗縣泰安鄉「苗栗泰安UP 露營區」目前為「加強監測」。主因：鄰近崩塌/警戒範圍、法規狀態需注意。請持續注意雨勢、溪水與邊坡狀況，先完成撤離路線與聯絡名冊確認。
200,草湳濕地農場,南投縣,埔里鎮,23.9486386,120.9150979,51.5,加強監測,209.3516771551365,592.36,7.54,198.2,南,21.9,19.5,87.63957825067675,銝,5676.973274466785,雿,6130.833761347159,低,3455.0777310532503,0728豪雨,違反相關法規露營場,區域計畫法,否,高,維持每 30–60 分鐘巡查邊坡、溪水與道路狀況，準備雨具、照明與通訊設備。,【露營安全提醒】南投縣埔里鎮「草湳濕地農場」目前為「加強監測」。主因：雨量偏高 209 mm/24h、距土石流影響範圍 88 m、法規狀態需注意。請持續注意雨勢、溪水與邊坡狀況，先完成撤離路線與聯絡名冊確認。
201,腳踏石地露營區,南投縣,鹿谷鄉,23.76179,120.79211,51.5,加強監測,191.2268962447208,406.48,16.32,11.0,北,9.2,33.8,340.07054157432543,銝,6417.320658234446,銝,6996.349243520998,高,702.3358347138327,0728豪雨,違反相關法規露營場,區域計畫法,否,高,維持每 30–60 分鐘巡查邊坡、溪水與道路狀況，準備雨具、照明與通訊設備。,【露營安全提醒】南投縣鹿谷鄉「腳踏石地露營區」目前為「加強監測」。主因：距土石流影響範圍 340 m、法規狀態需注意。請持續注意雨勢、溪水與邊坡狀況，先完成撤離路線與聯絡名冊確認。
202,源頭溫泉民宿,南投縣,信義鄉,23.5649401,120.9324414,51.4,加強監測,251.40129648923005,1282.91,14.99,192.1,南,39.9,38.0,310.9049439352105,擃,7827.787019762336,擃,8688.969669238068,高,3230.7246109248435,0728豪雨,違反相關法規露營場,農業發展條例,是,高,維持每 30–60 分鐘巡查邊坡、溪水與道路狀況，準備雨具、照明與通訊設備。,【露營安全提醒】南投縣信義鄉「源頭溫泉民宿」目前為「加強監測」。主因：雨量偏高 251 mm/24h、距土石流影響範圍 311 m、法規狀態需注意。請持續注意雨勢、溪水與邊坡狀況，先完成撤離路線與聯絡名冊確認。
203,伴天聊露營區,南投縣,仁愛鄉,24.0839351,120.990465,51.4,加強監測,207.36353886922976,514.5,8.93,218.8,西南,13.1,20.3,53.64487746909966,雿,19553.346044477847,雿,19553.346044477847,低,1240.3307459767923,0728豪雨,違反相關法規露營場,農業發展條例,是,高,維持每 30–60 分鐘巡查邊坡、溪水與道路狀況，準備雨具、照明與通訊設備。,【露營安全提醒】南投縣仁愛鄉「伴天聊露營區」目前為「加強監測」。主因：雨量偏高 207 mm/24h、距土石流影響範圍 54 m、法規狀態需注意。請持續注意雨勢、溪水與邊坡狀況，先完成撤離路線與聯絡名冊確認。
204,參陳山露營區,新竹縣,尖石鄉,24.683119,121.166617,51.4,加強監測,205.27827658964355,629.64,10.96,332.4,西北,0.0,21.4,46.4470313297216,擃,3960.213357303939,擃,3960.213357303939,高,10436.316990378002,1020豪雨,違反相關法規露營場,不符合土地管制法規,是,高,維持每 30–60 分鐘巡查邊坡、溪水與道路狀況，準備雨具、照明與通訊設備。,【露營安全提醒】新竹縣尖石鄉「參陳山露營區」目前為「加強監測」。主因：雨量偏高 205 mm/24h、距土石流影響範圍 46 m、法規狀態需注意。請持續注意雨勢、溪水與邊坡狀況，先完成撤離路線與聯絡名冊確認。
205,福山達卡露營區,新北市,烏來區,24.7747332901498,121.497686681618,51.4,加強監測,183.2654256089245,398.59,12.13,43.1,東北,35.9,31.6,17.717199090945922,雿,13311.245627436992,銝,13577.367104438355,中,14564.497686258792,0728豪雨,違反相關法規露營場,土地使用分區管制要點或都市計畫法新北市施行細則/建築法及違章建築處理辦法等規定,是,高,維持每 30–60 分鐘巡查邊坡、溪水與道路狀況，準備雨具、照明與通訊設備。,【露營安全提醒】新北市烏來區「福山達卡露營區」目前為「加強監測」。主因：距土石流影響範圍 18 m、法規狀態需注意。請持續注意雨勢、溪水與邊坡狀況，先完成撤離路線與聯絡名冊確認。
206,星月傳說露營區,嘉義縣,番路鄉,23.4221556404462,120.651909481842,51.3,加強監測,233.9512704349019,1323.81,21.39,162.5,南,64.6,55.9,965.8643132400748,雿,895.7664006548679,擃,960.3442945825844,高,1737.6299951339704,0728豪雨,違反相關法規露營場,違反區域計畫法,否,高,維持每 30–60 分鐘巡查邊坡、溪水與道路狀況，準備雨具、照明與通訊設備。,【露營安全提醒】嘉義縣番路鄉「星月傳說露營區」目前為「加強監測」。主因：雨量偏高 234 mm/24h、法規狀態需注意。請持續注意雨勢、溪水與邊坡狀況，先完成撤離路線與聯絡名冊確認。
207,武界喜樂露營區,南投縣,仁愛鄉,23.909341,121.049515,51.3,加強監測,207.3011378242231,732.09,4.47,271.1,西,0.0,8.7,0.0,銝,11334.310523818867,擃,11385.532087958618,高,1564.2685612886796,丹娜絲颱風、薇帕颱風、0721豪雨,違反相關法規露營場,無或未標示,是,高,維持每 30–60 分鐘巡查邊坡、溪水與道路狀況，準備雨具、照明與通訊設備。,【露營安全提醒】南投縣仁愛鄉「武界喜樂露營區」目前為「加強監測」。主因：雨量偏高 207 mm/24h、距土石流影響範圍 0 m、法規狀態需注意。請持續注意雨勢、溪水與邊坡狀況，先完成撤離路線與聯絡名冊確認。
208,遇見露營區,苗栗縣,卓蘭鎮,24.30494,120.85363,51.3,加強監測,183.1426445511225,483.59,12.55,301.7,西北,0.0,24.5,708.6620489758237,蝥閫撖,347.4801567427522,銝,497.4866052212138,中,1738.825544326928,0728豪雨,違反相關法規露營場,區域計畫法,否,高,維持每 30–60 分鐘巡查邊坡、溪水與道路狀況，準備雨具、照明與通訊設備。,【露營安全提醒】苗栗縣卓蘭鎮「遇見露營區」目前為「加強監測」。主因：鄰近崩塌/警戒範圍、法規狀態需注意。請持續注意雨勢、溪水與邊坡狀況，先完成撤離路線與聯絡名冊確認。
209,仙腳趾景觀露營區,嘉義縣,竹崎鄉,23.4928538568462,120.594016151588,51.3,加強監測,167.11348289627597,451.9,14.74,220.1,西南,16.6,32.4,686.1536977288127,擃,480.9121332814617,銝,480.9121332814617,中,672.0982527774191,0728豪雨,違反相關法規露營場,違反區域計畫法,否,高,維持每 30–60 分鐘巡查邊坡、溪水與道路狀況，準備雨具、照明與通訊設備。,【露營安全提醒】嘉義縣竹崎鄉「仙腳趾景觀露營區」目前為「加強監測」。主因：鄰近崩塌/警戒範圍、法規狀態需注意。請持續注意雨勢、溪水與邊坡狀況，先完成撤離路線與聯絡名冊確認。
210,藤枝櫻花原生茶園,高雄市,桃源區,23.0603779071231,120.736223004922,51.2,加強監測,222.6950489307073,1447.49,44.52,151.5,東南,73.8,94.2,4605.728823143591,擃,883.4686628075631,擃,1055.3943539772542,高,691.6033041134505,0728豪雨,違反相關法規露營場,區域計畫法,是,高,維持每 30–60 分鐘巡查邊坡、溪水與道路狀況，準備雨具、照明與通訊設備。,【露營安全提醒】高雄市桃源區「藤枝櫻花原生茶園」目前為「加強監測」。主因：雨量偏高 223 mm/24h、DEM坡度 45°、坡向 東南，迎風暴露較高、法規狀態需注意。請持續注意雨勢、溪水與邊坡狀況，先完成撤離路線與聯絡名冊確認。
211,基哥那裡,苗栗縣,泰安鄉,24.4192393292169,120.921910310106,51.2,加強監測,208.6739420682717,897.32,16.36,302.9,西北,0.0,31.9,1781.9753739460734,擃,456.3638415689184,銝,456.3638415689184,中,7696.356790232498,0728豪雨,違反相關法規露營場,區域計畫法,是,高,維持每 30–60 分鐘巡查邊坡、溪水與道路狀況，準備雨具、照明與通訊設備。,【露營安全提醒】苗栗縣泰安鄉「基哥那裡」目前為「加強監測」。主因：雨量偏高 209 mm/24h、鄰近崩塌/警戒範圍、法規狀態需注意。請持續注意雨勢、溪水與邊坡狀況，先完成撤離路線與聯絡名冊確認。
212,拉比尼亞露營山莊,高雄市,那瑪夏區,23.2568727649148,120.687259596143,51.2,加強監測,202.20308106459572,775.06,8.99,171.1,南,43.0,27.0,371.2908898444405,雿,14583.397246090435,銝,15714.950071364678,中,478.5185507108346,0728豪雨,違反相關法規露營場,區域計畫法,是,高,維持每 30–60 分鐘巡查邊坡、溪水與道路狀況，準備雨具、照明與通訊設備。,【露營安全提醒】高雄市那瑪夏區「拉比尼亞露營山莊」目前為「加強監測」。主因：雨量偏高 202 mm/24h、距土石流影響範圍 371 m、法規狀態需注意。請持續注意雨勢、溪水與邊坡狀況，先完成撤離路線與聯絡名冊確認。
213,達里沐露營區,高雄市,那瑪夏區,23.2199673997103,120.698549267306,51.1,加強監測,212.17353045665956,667.01,11.09,280.0,西,0.0,21.6,378.5427635196675,銝,12051.93770541902,銝,12462.419438351886,中,446.7710502290862,0728豪雨,違反相關法規露營場,區域計畫法,是,高,維持每 30–60 分鐘巡查邊坡、溪水與道路狀況，準備雨具、照明與通訊設備。,【露營安全提醒】高雄市那瑪夏區「達里沐露營區」目前為「加強監測」。主因：雨量偏高 212 mm/24h、距土石流影響範圍 379 m、法規狀態需注意。請持續注意雨勢、溪水與邊坡狀況，先完成撤離路線與聯絡名冊確認。
214,李白梵谷露露山丘,臺中市,新社區,24.143604,120.848514,51.1,加強監測,210.7452222535277,694.26,28.54,241.6,西南,0.0,55.7,388.5254675272531,雿,17821.689366289065,銝,17952.113944889912,中,4624.295694986645,0728豪雨,違反相關法規露營場,區域計畫法,否,高,維持每 30–60 分鐘巡查邊坡、溪水與道路狀況，準備雨具、照明與通訊設備。,【露營安全提醒】臺中市新社區「李白梵谷露露山丘」目前為「加強監測」。主因：雨量偏高 211 mm/24h、距土石流影響範圍 389 m、法規狀態需注意。請持續注意雨勢、溪水與邊坡狀況，先完成撤離路線與聯絡名冊確認。
215,宸羽坊衫,南投縣,埔里鎮,23.9465199,120.9409692,51.0,加強監測,217.22371088754147,478.03,25.4,226.1,西南,11.6,52.1,484.4110218124182,銝,8319.177113828702,雿,8772.38449177462,低,5233.966637787807,0728豪雨,違反相關法規露營場,區域計畫法,否,高,維持每 30–60 分鐘巡查邊坡、溪水與道路狀況，準備雨具、照明與通訊設備。,【露營安全提醒】南投縣埔里鎮「宸羽坊衫」目前為「加強監測」。主因：雨量偏高 217 mm/24h、距土石流影響範圍 484 m、法規狀態需注意。請持續注意雨勢、溪水與邊坡狀況，先完成撤離路線與聯絡名冊確認。
216,瞭望角景觀民宿露營區,苗栗縣,泰安鄉,24.429458,120.921704,51.0,加強監測,200.1409929344128,883.23,17.86,264.7,西,0.0,34.8,1033.578613427731,擃,302.20229952433465,銝,302.20229952433465,中,8811.930608105904,0728豪雨,違反相關法規露營場,不符合土地管制法規,是,高,維持每 30–60 分鐘巡查邊坡、溪水與道路狀況，準備雨具、照明與通訊設備。,【露營安全提醒】苗栗縣泰安鄉「瞭望角景觀民宿露營區」目前為「加強監測」。主因：雨量偏高 200 mm/24h、鄰近崩塌/警戒範圍、法規狀態需注意。請持續注意雨勢、溪水與邊坡狀況，先完成撤離路線與聯絡名冊確認。
217,嗎哪露營區,苗栗縣,泰安鄉,24.428815,120.913723,51.0,加強監測,194.82868819517788,734.18,15.58,201.3,南,32.2,37.5,1404.231386496357,擃,354.94727540393575,銝,371.9086517494621,中,8664.104459845232,0728豪雨,違反相關法規露營場,不符合土地管制法規,是,高,維持每 30–60 分鐘巡查邊坡、溪水與道路狀況，準備雨具、照明與通訊設備。,【露營安全提醒】苗栗縣泰安鄉「嗎哪露營區」目前為「加強監測」。主因：鄰近崩塌/警戒範圍、法規狀態需注意。請持續注意雨勢、溪水與邊坡狀況，先完成撤離路線與聯絡名冊確認。
218,大霸雅脈露營區,新竹縣,五峰鄉,24.623395,121.097632,50.9,加強監測,215.19749265326604,643.73,25.69,68.6,東,57.2,62.7,712.6550676582527,雿,806.5990369506319,擃,869.6135041532257,高,5932.163652041575,1020豪雨,違反相關法規露營場,不符合土地管制法規,是,高,維持每 30–60 分鐘巡查邊坡、溪水與道路狀況，準備雨具、照明與通訊設備。,【露營安全提醒】新竹縣五峰鄉「大霸雅脈露營區」目前為「加強監測」。主因：雨量偏高 215 mm/24h、法規狀態需注意。請持續注意雨勢、溪水與邊坡狀況，先完成撤離路線與聯絡名冊確認。
219,青天樂活露營區,南投縣,仁愛鄉,23.9175,121.047642,50.9,加強監測,203.7283135983483,730.74,12.12,173.5,南,55.4,35.8,103.88713079644032,擃,11121.099432612227,擃,11169.150182526531,高,2180.2168407833947,丹娜絲颱風、薇帕颱風、0721豪雨,違反相關法規露營場,農業發展條例,是,高,維持每 30–60 分鐘巡查邊坡、溪水與道路狀況，準備雨具、照明與通訊設備。,【露營安全提醒】南投縣仁愛鄉「青天樂活露營區」目前為「加強監測」。主因：雨量偏高 204 mm/24h、距土石流影響範圍 104 m、法規狀態需注意。請持續注意雨勢、溪水與邊坡狀況，先完成撤離路線與聯絡名冊確認。
220,蜻蜓露營區,桃園市,復興區,24.778501,121.325065,50.9,加強監測,201.87485063311323,644.74,10.29,290.1,西,0.0,20.1,23.077878424794854,擃,3077.733225728068,銝,3077.733225728068,中,3371.825143914585,0728豪雨,違反相關法規露營場,森林法,是,高,維持每 30–60 分鐘巡查邊坡、溪水與道路狀況，準備雨具、照明與通訊設備。,【露營安全提醒】桃園市復興區「蜻蜓露營區」目前為「加強監測」。主因：雨量偏高 202 mm/24h、距土石流影響範圍 23 m、法規狀態需注意。請持續注意雨勢、溪水與邊坡狀況，先完成撤離路線與聯絡名冊確認。
221,水秀休閒農場,南投縣,國姓鄉,24.0615188967993,120.895575410697,50.9,加強監測,185.79162019495428,354.45,4.48,125.7,東南,35.6,16.6,0.0,擃,11991.641190002523,雿,11991.641190002523,低,2452.7545845375703,0728豪雨,符合相關法規露營場,無或未標示,否,高,維持每 30–60 分鐘巡查邊坡、溪水與道路狀況，準備雨具、照明與通訊設備。,【露營安全提醒】南投縣國姓鄉「水秀休閒農場」目前為「加強監測」。主因：距土石流影響範圍 0 m、法規狀態需注意。請持續注意雨勢、溪水與邊坡狀況，先完成撤離路線與聯絡名冊確認。
222,啊露吧Camping聖地,苗栗縣,南庄鄉,24.557124,120.9774,50.8,加強監測,189.72027065400064,349.9,4.8,66.9,東北,22.3,14.3,0.0,銝,11124.328623876663,銝,11158.824004396423,中,7260.871566431037,0728豪雨,違反相關法規露營場,區域計畫法,是,高,維持每 30–60 分鐘巡查邊坡、溪水與道路狀況，準備雨具、照明與通訊設備。,【露營安全提醒】苗栗縣南庄鄉「啊露吧Camping聖地」目前為「加強監測」。主因：距土石流影響範圍 0 m、法規狀態需注意。請持續注意雨勢、溪水與邊坡狀況，先完成撤離路線與聯絡名冊確認。
223,三生園生態露營區,南投縣,鹿谷鄉,23.7264494,120.7768762,50.7,加強監測,202.5742529329603,609.87,3.83,326.1,西北,0.0,7.5,0.0,擃,2311.523367736333,銝,2786.473651341256,高,4430.526701779968,0728豪雨,違反相關法規露營場,農業發展條例,否,高,維持每 30–60 分鐘巡查邊坡、溪水與道路狀況，準備雨具、照明與通訊設備。,【露營安全提醒】南投縣鹿谷鄉「三生園生態露營區」目前為「加強監測」。主因：雨量偏高 203 mm/24h、距土石流影響範圍 0 m、法規狀態需注意。請持續注意雨勢、溪水與邊坡狀況，先完成撤離路線與聯絡名冊確認。
224,清景農場,苗栗縣,南庄鄉,24.559216,120.973743,50.7,加強監測,192.46903450655165,391.89,13.01,79.0,東,65.8,39.8,136.3023264214055,銝,11484.079065258942,銝,11521.433032047142,中,7038.294111302474,0728豪雨,違反相關法規露營場,區域計畫法,是,高,維持每 30–60 分鐘巡查邊坡、溪水與道路狀況，準備雨具、照明與通訊設備。,【露營安全提醒】苗栗縣南庄鄉「清景農場」目前為「加強監測」。主因：距土石流影響範圍 136 m、法規狀態需注意。請持續注意雨勢、溪水與邊坡狀況，先完成撤離路線與聯絡名冊確認。
225,咿喲ㄟ故鄉,南投縣,埔里鎮,23.9597838,120.8908763,50.7,加強監測,189.6798115325033,433.32,11.75,11.4,北,9.3,25.0,13.659072563589136,雿,3324.7241737479108,雿,3721.533297122573,低,2254.3174245420314,0728豪雨,違反相關法規露營場,農業發展條例,否,高,維持每 30–60 分鐘巡查邊坡、溪水與道路狀況，準備雨具、照明與通訊設備。,【露營安全提醒】南投縣埔里鎮「咿喲ㄟ故鄉」目前為「加強監測」。主因：距土石流影響範圍 14 m、法規狀態需注意。請持續注意雨勢、溪水與邊坡狀況，先完成撤離路線與聯絡名冊確認。
226,六龜 童趣休憩露營區,高雄市,六龜區,22.9828907495828,120.6361944489,50.7,加強監測,176.23243274470366,250.06,5.54,110.5,東,42.5,20.2,0.0,擃,4229.452212133261,銝,4354.408440044014,中,862.6634984765611,0728豪雨,違反相關法規露營場,區域計畫法,否,高,維持每 30–60 分鐘巡查邊坡、溪水與道路狀況，準備雨具、照明與通訊設備。,【露營安全提醒】高雄市六龜區「六龜 童趣休憩露營區」目前為「加強監測」。主因：距土石流影響範圍 0 m、法規狀態需注意。請持續注意雨勢、溪水與邊坡狀況，先完成撤離路線與聯絡名冊確認。
227,沙庫斯露營區,南投縣,仁愛鄉,24.0164984,121.1892008,50.5,加強監測,254.96686331631088,1177.3,7.84,329.7,西北,0.0,15.3,477.6474752099068,擃,1147.352502131894,擃,1331.4813834010256,高,3956.09682619037,丹娜絲颱風、薇帕颱風、0721豪雨,違反相關法規露營場,農業發展條例,是,高,維持每 30–60 分鐘巡查邊坡、溪水與道路狀況，準備雨具、照明與通訊設備。,【露營安全提醒】南投縣仁愛鄉「沙庫斯露營區」目前為「加強監測」。主因：雨量偏高 255 mm/24h、距土石流影響範圍 478 m、法規狀態需注意。請持續注意雨勢、溪水與邊坡狀況，先完成撤離路線與聯絡名冊確認。
228,迷糊露營區,嘉義縣,阿里山鄉,23.472824408927,120.713429208881,50.5,加強監測,237.77809689968785,1268.0,15.48,104.8,東,87.3,49.4,876.9657825003791,雿,561.2355793176738,擃,546.8864943905422,高,1305.2205927611285,0728豪雨,違反相關法規露營場,違反區域計畫法,是,高,維持每 30–60 分鐘巡查邊坡、溪水與道路狀況，準備雨具、照明與通訊設備。,【露營安全提醒】嘉義縣阿里山鄉「迷糊露營區」目前為「加強監測」。主因：雨量偏高 238 mm/24h、坡向 東，迎風暴露較高、法規狀態需注意。請持續注意雨勢、溪水與邊坡狀況，先完成撤離路線與聯絡名冊確認。
229,原始原味露營區,苗栗縣,泰安鄉,24.4299292973847,120.910552883118,50.5,加強監測,208.4250367982317,675.34,14.47,244.1,西南,0.0,28.2,1226.1371132234704,擃,479.1967313853687,銝,611.1036192892725,中,8777.592277495563,0728豪雨,違反相關法規露營場,不符合土地管制法規,是,高,維持每 30–60 分鐘巡查邊坡、溪水與道路狀況，準備雨具、照明與通訊設備。,【露營安全提醒】苗栗縣泰安鄉「原始原味露營區」目前為「加強監測」。主因：雨量偏高 208 mm/24h、鄰近崩塌/警戒範圍、法規狀態需注意。請持續注意雨勢、溪水與邊坡狀況，先完成撤離路線與聯絡名冊確認。
230,秀山霧海,苗栗縣,泰安鄉,24.42371,120.92845,50.5,加強監測,195.12590611553333,754.62,16.22,15.9,北,13.3,34.6,1635.6998070696964,擃,433.7402444685924,銝,433.7402444685924,中,8309.37648198308,0728豪雨,違反相關法規露營場,區域計畫法,是,高,維持每 30–60 分鐘巡查邊坡、溪水與道路狀況，準備雨具、照明與通訊設備。,【露營安全提醒】苗栗縣泰安鄉「秀山霧海」目前為「加強監測」。主因：鄰近崩塌/警戒範圍、法規狀態需注意。請持續注意雨勢、溪水與邊坡狀況，先完成撤離路線與聯絡名冊確認。
231,呆呆的家,臺中市,和平區,24.169101,120.95857,50.5,加強監測,185.0639875096831,646.45,29.21,198.5,南,34.6,64.6,262.4585029377108,擃,17236.406145405286,擃,17236.406145405286,高,5595.336253671855,0728豪雨,違反相關法規露營場,區域計畫法,是,高,維持每 30–60 分鐘巡查邊坡、溪水與道路狀況，準備雨具、照明與通訊設備。,【露營安全提醒】臺中市和平區「呆呆的家」目前為「加強監測」。主因：距土石流影響範圍 262 m、法規狀態需注意。請持續注意雨勢、溪水與邊坡狀況，先完成撤離路線與聯絡名冊確認。
232,清龍谷野營渡假中心,桃園市,復興區,24.809473,121.374254,50.5,加強監測,169.43141290223534,283.92,20.81,188.0,南,43.3,50.1,197.7507503626038,銝,3430.288896677043,銝,3723.403790432557,中,5498.781165984056,0728豪雨,違反相關法規露營場,農業發展條例,是,高,維持每 30–60 分鐘巡查邊坡、溪水與道路狀況，準備雨具、照明與通訊設備。,【露營安全提醒】桃園市復興區「清龍谷野營渡假中心」目前為「加強監測」。主因：距土石流影響範圍 198 m、法規狀態需注意。請持續注意雨勢、溪水與邊坡狀況，先完成撤離路線與聯絡名冊確認。
233,賽德克公主美食文化露營區,南投縣,仁愛鄉,24.0127762,121.0888527,50.4,加強監測,224.0334538907105,750.79,6.99,88.9,東,43.2,23.1,186.85190280274625,擃,8495.340071570725,擃,7951.433323136269,高,8979.417442423723,0728豪雨,違反相關法規露營場,農業發展條例\森林法,是,高,維持每 30–60 分鐘巡查邊坡、溪水與道路狀況，準備雨具、照明與通訊設備。,【露營安全提醒】南投縣仁愛鄉「賽德克公主美食文化露營區」目前為「加強監測」。主因：雨量偏高 224 mm/24h、距土石流影響範圍 187 m、法規狀態需注意。請持續注意雨勢、溪水與邊坡狀況，先完成撤離路線與聯絡名冊確認。
234,太平山森活趣渡假農場,宜蘭縣,大同鄉,24.5227351983722,121.4474264,50.4,加強監測,220.11442072422733,607.77,13.06,324.7,西北,0.0,25.5,204.04110617806305,銝,6499.624299896192,銝,6466.401132922044,中,4876.05217751251,鳳凰颱風,違反相關法規露營場,區域計畫法,是,高,維持每 30–60 分鐘巡查邊坡、溪水與道路狀況，準備雨具、照明與通訊設備。,【露營安全提醒】宜蘭縣大同鄉「太平山森活趣渡假農場」目前為「加強監測」。主因：雨量偏高 220 mm/24h、距土石流影響範圍 204 m、法規狀態需注意。請持續注意雨勢、溪水與邊坡狀況，先完成撤離路線與聯絡名冊確認。
235,桃山清泉露營區,新竹縣,五峰鄉,24.570342,121.106783,50.4,加強監測,206.70252540320269,757.26,18.42,10.9,北,9.1,37.9,315.33458705980973,擃,1709.5392088125789,銝,1828.1897242681096,中,6596.366669264127,0728豪雨,違反相關法規露營場,無或未標示,是,高,維持每 30–60 分鐘巡查邊坡、溪水與道路狀況，準備雨具、照明與通訊設備。,【露營安全提醒】新竹縣五峰鄉「桃山清泉露營區」目前為「加強監測」。主因：雨量偏高 207 mm/24h、距土石流影響範圍 315 m、法規狀態需注意。請持續注意雨勢、溪水與邊坡狀況，先完成撤離路線與聯絡名冊確認。
236,德芙蘭農場,臺中市,和平區,24.175593,120.969166,50.4,加強監測,196.55894530981143,741.73,11.46,161.7,南,62.3,36.1,169.072691393343,雿,16723.489049343105,擃,16723.489049343105,高,5215.081792011223,0728豪雨,違反相關法規露營場,區域計畫法,是,高,維持每 30–60 分鐘巡查邊坡、溪水與道路狀況，準備雨具、照明與通訊設備。,【露營安全提醒】臺中市和平區「德芙蘭農場」目前為「加強監測」。主因：距土石流影響範圍 169 m、法規狀態需注意。請持續注意雨勢、溪水與邊坡狀況，先完成撤離路線與聯絡名冊確認。
237,都構密思木屋民宿,南投縣,信義鄉,23.598355,120.881031,50.3,加強監測,241.8092897143457,1035.65,35.3,97.4,東,81.2,86.7,903.111692622164,銝,6779.63928284925,擃,7282.145654745415,高,4695.945904133915,0728豪雨,違反相關法規露營場,農業發展條例,是,高,維持每 30–60 分鐘巡查邊坡、溪水與道路狀況，準備雨具、照明與通訊設備。,【露營安全提醒】南投縣信義鄉「都構密思木屋民宿」目前為「加強監測」。主因：雨量偏高 242 mm/24h、DEM坡度 35°、坡向 東，迎風暴露較高、法規狀態需注意。請持續注意雨勢、溪水與邊坡狀況，先完成撤離路線與聯絡名冊確認。
238,發啦斯露營場,高雄市,那瑪夏區,23.2876589527003,120.724033603535,50.2,加強監測,219.2422693914572,776.15,25.79,278.7,西,0.0,50.3,1343.6335866742636,蝥閫撖,12604.611505390352,銝,14033.92970849378,中,287.8489113467465,0728豪雨,違反相關法規露營場,區域計畫法,是,高,維持每 30–60 分鐘巡查邊坡、溪水與道路狀況，準備雨具、照明與通訊設備。,【露營安全提醒】高雄市那瑪夏區「發啦斯露營場」目前為「加強監測」。主因：雨量偏高 219 mm/24h、法規狀態需注意。請持續注意雨勢、溪水與邊坡狀況，先完成撤離路線與聯絡名冊確認。
239,藍天嶺露營區,苗栗縣,泰安鄉,24.420295,120.923971,50.2,加強監測,215.09330005341053,996.7,18.87,283.9,西,0.0,36.8,2003.214737801905,擃,351.78857837454547,銝,351.78857837454547,中,7846.981018404696,0728豪雨,違反相關法規露營場,區域計畫法,是,高,維持每 30–60 分鐘巡查邊坡、溪水與道路狀況，準備雨具、照明與通訊設備。,【露營安全提醒】苗栗縣泰安鄉「藍天嶺露營區」目前為「加強監測」。主因：雨量偏高 215 mm/24h、鄰近崩塌/警戒範圍、法規狀態需注意。請持續注意雨勢、溪水與邊坡狀況，先完成撤離路線與聯絡名冊確認。
240,瞰海露營區,花蓮縣,壽豐鄉,23.87807,121.6006,50.2,加強監測,197.48738361229013,20.23,5.05,105.4,東,37.0,18.0,13.130399341679164,擃,13728.518602839931,擃,14209.18959495768,高,2529.741531060106,樺加沙颱風,符合相關法規露營場,無或未標示,是,高,維持每 30–60 分鐘巡查邊坡、溪水與道路狀況，準備雨具、照明與通訊設備。,【露營安全提醒】花蓮縣壽豐鄉「瞰海露營區」目前為「加強監測」。主因：距土石流影響範圍 13 m、法規狀態需注意。請持續注意雨勢、溪水與邊坡狀況，先完成撤離路線與聯絡名冊確認。
241,一畝田(蓮花帳系列),苗栗縣,南庄鄉,24.544092,120.973199,50.2,加強監測,185.09972289803457,454.75,6.66,323.8,西北,0.0,13.0,0.0,銝,11713.00158138708,銝,11733.84362732584,中,6346.568389371312,0728豪雨,違反相關法規露營場,不符合土地管制法規,是,高,維持每 30–60 分鐘巡查邊坡、溪水與道路狀況，準備雨具、照明與通訊設備。,【露營安全提醒】苗栗縣南庄鄉「一畝田(蓮花帳系列)」目前為「加強監測」。主因：距土石流影響範圍 0 m、法規狀態需注意。請持續注意雨勢、溪水與邊坡狀況，先完成撤離路線與聯絡名冊確認。
242,八度野溪露營區,桃園市,復興區,24.792131,121.335976,50.2,加強監測,160.77878142400274,340.31,27.71,111.2,東,92.7,74.4,444.0843593272315,擃,2721.466575381124,銝,2721.466575381124,中,3679.950927540858,0728豪雨,違反相關法規露營場,區域計畫法,是,高,維持每 30–60 分鐘巡查邊坡、溪水與道路狀況，準備雨具、照明與通訊設備。,【露營安全提醒】桃園市復興區「八度野溪露營區」目前為「加強監測」。主因：坡向 東，迎風暴露較高、距土石流影響範圍 444 m、法規狀態需注意。請持續注意雨勢、溪水與邊坡狀況，先完成撤離路線與聯絡名冊確認。
243,亞爸的山,宜蘭縣,大同鄉,24.416811778864,121.367242580023,50.1,加強監測,249.61380808372664,1401.23,16.42,331.1,西北,0.0,32.0,314.09336385544134,雿,17362.099561897714,銝,17475.56860189582,中,1244.7613620194777,0728豪雨,違反相關法規露營場,區域計畫法,是,高,維持每 30–60 分鐘巡查邊坡、溪水與道路狀況，準備雨具、照明與通訊設備。,【露營安全提醒】宜蘭縣大同鄉「亞爸的山」目前為「加強監測」。主因：雨量偏高 250 mm/24h、距土石流影響範圍 314 m、法規狀態需注意。請持續注意雨勢、溪水與邊坡狀況，先完成撤離路線與聯絡名冊確認。
244,蔽月山房,南投縣,埔里鎮,23.9387146,120.9206829,50.1,加強監測,209.55552663452977,529.08,15.69,130.4,東南,91.3,50.7,422.9942557867225,雿,6388.092505535308,雿,6828.701728030029,低,4689.226443342776,0728豪雨,違反相關法規露營場,區域計畫法,否,高,維持每 30–60 分鐘巡查邊坡、溪水與道路狀況，準備雨具、照明與通訊設備。,【露營安全提醒】南投縣埔里鎮「蔽月山房」目前為「加強監測」。主因：雨量偏高 210 mm/24h、坡向 東南，迎風暴露較高、距土石流影響範圍 423 m、法規狀態需注意。請持續注意雨勢、溪水與邊坡狀況，先完成撤離路線與聯絡名冊確認。
245,上巴爺爺露營區,苗栗縣,泰安鄉,24.470967,120.967172,50.0,加強監測,216.131482872676,625.47,15.78,150.4,東南,74.7,47.2,427.202544142454,銝,5068.837463601955,銝,5068.818406777081,中,8410.719888437789,0728豪雨,違反相關法規露營場,不符合土地管制法規,是,高,維持每 30–60 分鐘巡查邊坡、溪水與道路狀況，準備雨具、照明與通訊設備。,【露營安全提醒】苗栗縣泰安鄉「上巴爺爺露營區」目前為「加強監測」。主因：雨量偏高 216 mm/24h、坡向 東南，迎風暴露較高、距土石流影響範圍 427 m、法規狀態需注意。請持續注意雨勢、溪水與邊坡狀況，先完成撤離路線與聯絡名冊確認。
246,神農谷,臺中市,和平區,24.171513,120.972935,50.0,加強監測,201.43248147883023,683.82,7.87,349.6,北,0.0,15.3,33.66869754076484,銝,17248.84048049047,擃,17248.84048049047,高,5781.010392681197,0728豪雨,違反相關法規露營場,區域計畫法,是,高,維持每 30–60 分鐘巡查邊坡、溪水與道路狀況，準備雨具、照明與通訊設備。,【露營安全提醒】臺中市和平區「神農谷」目前為「加強監測」。主因：雨量偏高 201 mm/24h、距土石流影響範圍 34 m、法規狀態需注意。請持續注意雨勢、溪水與邊坡狀況，先完成撤離路線與聯絡名冊確認。
247,溫德莊園,高雄市,六龜區,23.0571635356417,120.674733867303,50.0,加強監測,178.08548203429518,352.57,3.1,169.2,南,15.2,9.4,229.876638469457,擃,3106.108991537565,擃,2502.427357850144,高,681.3551669061866,0728豪雨,違反相關法規露營場,區域計畫法,否,高,維持每 30–60 分鐘巡查邊坡、溪水與道路狀況，準備雨具、照明與通訊設備。,【露營安全提醒】高雄市六龜區「溫德莊園」目前為「加強監測」。主因：距土石流影響範圍 230 m、法規狀態需注意。請持續注意雨勢、溪水與邊坡狀況，先完成撤離路線與聯絡名冊確認。
248,滿園春舍,臺東縣,臺東市,22.761241,121.041686,50.0,加強監測,173.12001863638685,115.51,2.79,33.8,東北,0.0,5.4,129.12448414400228,蝥閫撖,638.9825422256037,銝,638.9825422256037,中,4261.305515370222,0728豪雨,違反相關法規露營場,違反區域計畫法,是,高,維持每 30–60 分鐘巡查邊坡、溪水與道路狀況，準備雨具、照明與通訊設備。,【露營安全提醒】臺東縣臺東市「滿園春舍」目前為「加強監測」。主因：距土石流影響範圍 129 m、法規狀態需注意。請持續注意雨勢、溪水與邊坡狀況，先完成撤離路線與聯絡名冊確認。
249,喜樂露營區,新竹縣,尖石鄉,24.680122,121.160256,49.9,加強監測,198.05034577222187,686.52,17.16,116.5,東南,97.1,54.8,389.97968701216274,擃,4355.315347372426,銝,4355.315347372426,中,9751.036325714616,1020豪雨,違反相關法規露營場,區域計畫法,是,高,維持每 30–60 分鐘巡查邊坡、溪水與道路狀況，準備雨具、照明與通訊設備。,【露營安全提醒】新竹縣尖石鄉「喜樂露營區」目前為「加強監測」。主因：坡向 東南，迎風暴露較高、距土石流影響範圍 390 m、法規狀態需注意。請持續注意雨勢、溪水與邊坡狀況，先完成撤離路線與聯絡名冊確認。
250,哈努英餐坊營地,南投縣,信義鄉,23.7923,120.95264,49.9,加強監測,196.55544001954047,444.08,16.96,237.0,西南,2.5,33.6,202.6136623772496,擃,19905.62804303639,雿,20186.04730281778,低,6260.199915160768,0728豪雨,違反相關法規露營場,區域計畫法,是,高,維持每 30–60 分鐘巡查邊坡、溪水與道路狀況，準備雨具、照明與通訊設備。,【露營安全提醒】南投縣信義鄉「哈努英餐坊營地」目前為「加強監測」。主因：距土石流影響範圍 203 m、法規狀態需注意。請持續注意雨勢、溪水與邊坡狀況，先完成撤離路線與聯絡名冊確認。
251,宇世格爵露營區,宜蘭縣,大同鄉,24.5936129557895,121.536126581611,49.9,加強監測,191.42340955458,339.22,7.11,52.1,東北,25.7,19.5,2.626285408393211,蝥閫撖,6383.575448131525,銝,6378.803137061609,中,7320.650406677812,鳳凰颱風,違反相關法規露營場,區域計畫法,是,高,維持每 30–60 分鐘巡查邊坡、溪水與道路狀況，準備雨具、照明與通訊設備。,【露營安全提醒】宜蘭縣大同鄉「宇世格爵露營區」目前為「加強監測」。主因：距土石流影響範圍 3 m、法規狀態需注意。請持續注意雨勢、溪水與邊坡狀況，先完成撤離路線與聯絡名冊確認。
252,象鼻休閒山莊,苗栗縣,泰安鄉,24.3619073900433,120.944841910104,49.9,加強監測,187.99115801194029,674.36,6.63,157.8,南,37.8,21.2,65.74138955422407,銝,3369.5672838481323,擃,3369.5672838481323,高,3729.8593387744168,0728豪雨,違反相關法規露營場,區域計畫法,是,高,維持每 30–60 分鐘巡查邊坡、溪水與道路狀況，準備雨具、照明與通訊設備。,【露營安全提醒】苗栗縣泰安鄉「象鼻休閒山莊」目前為「加強監測」。主因：距土石流影響範圍 66 m、法規狀態需注意。請持續注意雨勢、溪水與邊坡狀況，先完成撤離路線與聯絡名冊確認。
253,柏里紅,苗栗縣,泰安鄉,24.402911,120.980594,49.8,加強監測,223.58042805541425,1239.5,19.4,215.7,西南,20.3,42.3,302.6683384534379,雿,5671.811537584781,擃,5681.244369222577,高,9198.06097646816,0728豪雨,違反相關法規露營場,區域計畫法,是,高,維持每 30–60 分鐘巡查邊坡、溪水與道路狀況，準備雨具、照明與通訊設備。,【露營安全提醒】苗栗縣泰安鄉「柏里紅」目前為「加強監測」。主因：雨量偏高 224 mm/24h、距土石流影響範圍 303 m、法規狀態需注意。請持續注意雨勢、溪水與邊坡狀況，先完成撤離路線與聯絡名冊確認。
254,瑞娜京霖露營場,苗栗縣,泰安鄉,24.39604,120.94018,49.8,加強監測,221.4341356628917,944.51,31.75,85.5,東,71.2,77.6,969.5801266779832,蝥閫撖,1530.8046339386651,擃,1572.4074946449334,高,5884.506336302813,0728豪雨,違反相關法規露營場,區域計畫法,是,高,維持每 30–60 分鐘巡查邊坡、溪水與道路狀況，準備雨具、照明與通訊設備。,【露營安全提醒】苗栗縣泰安鄉「瑞娜京霖露營場」目前為「加強監測」。主因：雨量偏高 221 mm/24h、DEM坡度 32°、坡向 東，迎風暴露較高、法規狀態需注意。請持續注意雨勢、溪水與邊坡狀況，先完成撤離路線與聯絡名冊確認。
255,的貴露營區,苗栗縣,泰安鄉,24.3535341843064,120.963646808257,49.8,加強監測,199.6860138197199,754.99,24.31,34.9,東北,29.1,53.8,329.2492732867367,蝥閫撖,3998.844545471761,擃,3998.844545471761,高,5427.250154916898,0728豪雨,違反相關法規露營場,不符合土地管制法規,是,高,維持每 30–60 分鐘巡查邊坡、溪水與道路狀況，準備雨具、照明與通訊設備。,【露營安全提醒】苗栗縣泰安鄉「的貴露營區」目前為「加強監測」。主因：距土石流影響範圍 329 m、法規狀態需注意。請持續注意雨勢、溪水與邊坡狀況，先完成撤離路線與聯絡名冊確認。
256,忘憂小築休閒俱樂部,苗栗縣,泰安鄉,24.42924,120.91985,49.7,加強監測,221.77950678915053,843.37,8.9,304.4,西北,0.0,17.4,1097.1804639155905,擃,302.5888445828303,銝,302.5888445828303,中,8763.565944975466,0728豪雨,違反相關法規露營場,不符合土地管制法規,是,高,維持每 30–60 分鐘巡查邊坡、溪水與道路狀況，準備雨具、照明與通訊設備。,【露營安全提醒】苗栗縣泰安鄉「忘憂小築休閒俱樂部」目前為「加強監測」。主因：雨量偏高 222 mm/24h、鄰近崩塌/警戒範圍、法規狀態需注意。請持續注意雨勢、溪水與邊坡狀況，先完成撤離路線與聯絡名冊確認。
257,圓夢農莊,桃園市,復興區,24.69457,121.403507,49.7,加強監測,199.2082657521877,858.74,7.84,347.7,北,0.0,15.3,108.24584254035008,銝,1130.0630780129427,擃,1130.0630780129427,高,9067.846931035892,0728豪雨,違反相關法規露營場,農業發展條例,是,高,維持每 30–60 分鐘巡查邊坡、溪水與道路狀況，準備雨具、照明與通訊設備。,【露營安全提醒】桃園市復興區「圓夢農莊」目前為「加強監測」。主因：距土石流影響範圍 108 m、法規狀態需注意。請持續注意雨勢、溪水與邊坡狀況，先完成撤離路線與聯絡名冊確認。
258,望幽嵐露營區,苗栗縣,泰安鄉,24.34381,120.92215,49.7,加強監測,193.533309852452,579.37,0.54,133.4,東南,0.0,1.1,69.12131655427335,蝥閫撖,1266.8287026229527,擃,1266.8287026229527,高,1411.511107821149,0728豪雨,違反相關法規露營場,區域計畫法,是,高,維持每 30–60 分鐘巡查邊坡、溪水與道路狀況，準備雨具、照明與通訊設備。,【露營安全提醒】苗栗縣泰安鄉「望幽嵐露營區」目前為「加強監測」。主因：距土石流影響範圍 69 m、法規狀態需注意。請持續注意雨勢、溪水與邊坡狀況，先完成撤離路線與聯絡名冊確認。
259,何必館,臺中市,和平區,24.176939,120.979847,49.7,加強監測,192.42272100120343,657.07,3.52,271.0,西,0.0,6.9,0.0,銝,16844.3636585751,擃,16844.3636585751,高,5588.340327065418,0728豪雨,違反相關法規露營場,區域計畫法,是,高,維持每 30–60 分鐘巡查邊坡、溪水與道路狀況，準備雨具、照明與通訊設備。,【露營安全提醒】臺中市和平區「何必館」目前為「加強監測」。主因：距土石流影響範圍 0 m、法規狀態需注意。請持續注意雨勢、溪水與邊坡狀況，先完成撤離路線與聯絡名冊確認。
260,庭綩小棧,桃園市,復興區,24.810531,121.375013,49.7,加強監測,178.37069511583817,349.02,12.16,144.8,東南,79.3,41.2,133.35891119309034,銝,3565.814144547899,銝,3858.905979359453,中,5636.090556432237,0728豪雨,違反相關法規露營場,農業發展條例,是,高,維持每 30–60 分鐘巡查邊坡、溪水與道路狀況，準備雨具、照明與通訊設備。,【露營安全提醒】桃園市復興區「庭綩小棧」目前為「加強監測」。主因：坡向 東南，迎風暴露較高、距土石流影響範圍 133 m、法規狀態需注意。請持續注意雨勢、溪水與邊坡狀況，先完成撤離路線與聯絡名冊確認。
261,自由大地露營區,新竹縣,尖石鄉,24.678345,121.199397,49.6,加強監測,226.331642401448,854.39,14.98,113.1,東南,94.2,49.9,626.7127445340566,擃,601.1115731760389,擃,601.1115731760389,高,13669.256648826356,1020豪雨,違反相關法規露營場,不符合土地管制法規,是,高,維持每 30–60 分鐘巡查邊坡、溪水與道路狀況，準備雨具、照明與通訊設備。,【露營安全提醒】新竹縣尖石鄉「自由大地露營區」目前為「加強監測」。主因：雨量偏高 226 mm/24h、坡向 東南，迎風暴露較高、法規狀態需注意。請持續注意雨勢、溪水與邊坡狀況，先完成撤離路線與聯絡名冊確認。
262,祿野營地,南投縣,魚池鄉,23.9232223,120.9374628,49.5,加強監測,202.84957147700675,633.51,8.26,97.0,東,55.6,28.3,123.9797270382372,雿,8523.993158583451,雿,8943.735448931358,低,7002.660926989977,0728豪雨,違反相關法規露營場,區域計畫法,是,高,維持每 30–60 分鐘巡查邊坡、溪水與道路狀況，準備雨具、照明與通訊設備。,【露營安全提醒】南投縣魚池鄉「祿野營地」目前為「加強監測」。主因：雨量偏高 203 mm/24h、距土石流影響範圍 124 m、法規狀態需注意。請持續注意雨勢、溪水與邊坡狀況，先完成撤離路線與聯絡名冊確認。
263,戀戀南橫 2071 露營區,高雄市,六龜區,23.0712413791397,120.660276067147,49.5,加強監測,202.56204885371093,432.34,31.21,202.7,西南,31.1,67.7,2142.0334976579625,擃,3305.4205942585445,擃,3127.1775722109337,高,184.7893330405672,0728豪雨,違反相關法規露營場,區域計畫法,否,高,維持每 30–60 分鐘巡查邊坡、溪水與道路狀況，準備雨具、照明與通訊設備。,【露營安全提醒】高雄市六龜區「戀戀南橫 2071 露營區」目前為「加強監測」。主因：雨量偏高 203 mm/24h、DEM坡度 31°、法規狀態需注意。請持續注意雨勢、溪水與邊坡狀況，先完成撤離路線與聯絡名冊確認。
264,卑里露營區,南投縣,仁愛鄉,24.0237511,121.1629367,49.4,加強監測,227.27710712173345,1045.97,8.35,301.4,西北,0.0,16.3,209.88549185895496,銝,2005.807516302235,擃,2005.807516302235,高,6273.097482074174,丹娜絲颱風、薇帕颱風、0721豪雨,違反相關法規露營場,區域計畫法,是,高,維持每 30–60 分鐘巡查邊坡、溪水與道路狀況，準備雨具、照明與通訊設備。,【露營安全提醒】南投縣仁愛鄉「卑里露營區」目前為「加強監測」。主因：雨量偏高 227 mm/24h、距土石流影響範圍 210 m、法規狀態需注意。請持續注意雨勢、溪水與邊坡狀況，先完成撤離路線與聯絡名冊確認。
265,Laung石頭露營區,高雄市,桃源區,23.1808142446526,120.789650795022,49.4,加強監測,205.43533693714232,925.24,16.65,280.1,西,0.0,32.5,819.9646413502826,蝥閫撖,8804.27344862644,銝,8804.27344862644,中,254.5724110936781,0728豪雨,違反相關法規露營場,區域計畫法,是,高,維持每 30–60 分鐘巡查邊坡、溪水與道路狀況，準備雨具、照明與通訊設備。,【露營安全提醒】高雄市桃源區「Laung石頭露營區」目前為「加強監測」。主因：雨量偏高 205 mm/24h、法規狀態需注意。請持續注意雨勢、溪水與邊坡狀況，先完成撤離路線與聯絡名冊確認。
266,八寶寮露營場A區,嘉義縣,中埔鄉,23.3540939355844,120.519394419185,49.2,加強監測,193.07704673895165,553.32,0.66,203.0,西南,0.0,1.3,1208.979554711866,擃,174.1388434923413,銝,174.1388434923413,中,4295.148228361289,0728豪雨,違反相關法規露營場,違反區域計畫法,否,高,維持每 30–60 分鐘巡查邊坡、溪水與道路狀況，準備雨具、照明與通訊設備。,【露營安全提醒】嘉義縣中埔鄉「八寶寮露營場A區」目前為「加強監測」。主因：鄰近崩塌/警戒範圍、法規狀態需注意。請持續注意雨勢、溪水與邊坡狀況，先完成撤離路線與聯絡名冊確認。
267,鳳凰渡假山莊,南投縣,鹿谷鄉,23.7108249,120.8226776,49.0,加強監測,222.201021149257,840.63,8.12,50.9,東北,28.7,22.1,706.9084600720461,銝,4449.084851817321,銝,4586.130708330658,中,217.80977597206143,丹娜絲颱風、薇帕颱風、0721豪雨,違反相關法規露營場,農業發展條例,否,高,維持每 30–60 分鐘巡查邊坡、溪水與道路狀況，準備雨具、照明與通訊設備。,【露營安全提醒】南投縣鹿谷鄉「鳳凰渡假山莊」目前為「加強監測」。主因：雨量偏高 222 mm/24h、法規狀態需注意。請持續注意雨勢、溪水與邊坡狀況，先完成撤離路線與聯絡名冊確認。
268,花石間景觀露營區,苗栗縣,泰安鄉,24.420346,120.916906,49.0,加強監測,196.8548325818201,729.55,11.73,226.7,西南,10.8,25.2,1299.0340304355866,擃,317.0280222269931,銝,317.0280222269931,中,7751.955521889584,0728豪雨,違反相關法規露營場,不符合土地管制法規,是,高,維持每 30–60 分鐘巡查邊坡、溪水與道路狀況，準備雨具、照明與通訊設備。,【露營安全提醒】苗栗縣泰安鄉「花石間景觀露營區」目前為「加強監測」。主因：鄰近崩塌/警戒範圍、法規狀態需注意。請持續注意雨勢、溪水與邊坡狀況，先完成撤離路線與聯絡名冊確認。
269,蘇菲凱文露營莊園露營區,高雄市,六龜區,23.0430731607969,120.667742795848,49.0,加強監測,184.71308207017864,339.63,0.43,,平坦/無坡向,0.0,0.8,247.7876952365148,銝,1592.5588900172274,銝,1745.3796993994845,中,631.7259609551146,0728豪雨,違反相關法規露營場,區域計畫法,否,高,維持每 30–60 分鐘巡查邊坡、溪水與道路狀況，準備雨具、照明與通訊設備。,【露營安全提醒】高雄市六龜區「蘇菲凱文露營莊園露營區」目前為「加強監測」。主因：距土石流影響範圍 248 m、法規狀態需注意。請持續注意雨勢、溪水與邊坡狀況，先完成撤離路線與聯絡名冊確認。
270,達巴斯露營區,南投縣,仁愛鄉,23.908737,121.0517349,48.9,加強監測,217.74592846991968,755.86,0.6,65.9,東北,0.0,1.2,30.822438716596583,銝,11166.056438664093,擃,11217.825458227717,高,1698.3184578296618,丹娜絲颱風、薇帕颱風、0721豪雨,違反相關法規露營場,農業發展條例,是,高,維持每 30–60 分鐘巡查邊坡、溪水與道路狀況，準備雨具、照明與通訊設備。,【露營安全提醒】南投縣仁愛鄉「達巴斯露營區」目前為「加強監測」。主因：雨量偏高 218 mm/24h、距土石流影響範圍 31 m、法規狀態需注意。請持續注意雨勢、溪水與邊坡狀況，先完成撤離路線與聯絡名冊確認。
271,晨月緣露營區,高雄市,桃源區,23.070982508403,120.711921867303,48.8,加強監測,235.25861776448352,1315.16,16.67,205.2,西南,29.0,38.9,1865.9905471967347,擃,1278.720970228609,擃,437.21644094917497,高,872.9963791158474,0728豪雨,違反相關法規露營場,區域計畫法,是,高,維持每 30–60 分鐘巡查邊坡、溪水與道路狀況，準備雨具、照明與通訊設備。,【露營安全提醒】高雄市桃源區「晨月緣露營區」目前為「加強監測」。主因：雨量偏高 235 mm/24h、鄰近崩塌/警戒範圍、法規狀態需注意。請持續注意雨勢、溪水與邊坡狀況，先完成撤離路線與聯絡名冊確認。
272,露露米露營區,新竹縣,五峰鄉,24.623174,121.143221,48.8,加強監測,228.8496263827777,1009.15,17.8,272.1,西,0.0,34.7,494.7802660354728,雿,2648.196095952137,銝,2648.196095952137,中,9361.234430739958,1020豪雨,違反相關法規露營場,區域計畫法,是,高,維持每 30–60 分鐘巡查邊坡、溪水與道路狀況，準備雨具、照明與通訊設備。,【露營安全提醒】新竹縣五峰鄉「露露米露營區」目前為「加強監測」。主因：雨量偏高 229 mm/24h、距土石流影響範圍 495 m、法規狀態需注意。請持續注意雨勢、溪水與邊坡狀況，先完成撤離路線與聯絡名冊確認。
273,雙龍景觀營地(雙龍橋),南投縣,信義鄉,23.7856043,120.9467607,48.8,加強監測,207.22267208118024,526.97,23.07,305.6,西北,0.0,45.0,373.4468486833972,雿,19370.715812255825,銝,19695.91598374772,中,5898.523265569107,0728豪雨,違反相關法規露營場,農業發展條例,是,高,維持每 30–60 分鐘巡查邊坡、溪水與道路狀況，準備雨具、照明與通訊設備。,【露營安全提醒】南投縣信義鄉「雙龍景觀營地(雙龍橋)」目前為「加強監測」。主因：雨量偏高 207 mm/24h、距土石流影響範圍 373 m、法規狀態需注意。請持續注意雨勢、溪水與邊坡狀況，先完成撤離路線與聯絡名冊確認。
274,花香果樂,苗栗縣,大湖鄉,24.37627,120.860817,48.8,加強監測,180.43434857374749,306.35,17.98,295.7,西北,0.0,35.1,134.99141689268396,雿,5190.075185047859,銝,5545.581271097266,中,5685.691318220743,0728豪雨,違反相關法規露營場,區域計畫法,否,高,維持每 30–60 分鐘巡查邊坡、溪水與道路狀況，準備雨具、照明與通訊設備。,【露營安全提醒】苗栗縣大湖鄉「花香果樂」目前為「加強監測」。主因：距土石流影響範圍 135 m、法規狀態需注意。請持續注意雨勢、溪水與邊坡狀況，先完成撤離路線與聯絡名冊確認。
275,雲起露營區,新竹縣,五峰鄉,24.585229,121.085532,48.7,加強監測,250.33672266384488,1199.96,36.94,121.8,東南,98.5,93.7,1807.655076565144,蝥閫撖,2226.289866975525,銝,2428.837694489263,中,9146.2455755876,0728豪雨,違反相關法規露營場,不符合土地管制法規,是,高,維持每 30–60 分鐘巡查邊坡、溪水與道路狀況，準備雨具、照明與通訊設備。,【露營安全提醒】新竹縣五峰鄉「雲起露營區」目前為「加強監測」。主因：雨量偏高 250 mm/24h、DEM坡度 37°、坡向 東南，迎風暴露較高、法規狀態需注意。請持續注意雨勢、溪水與邊坡狀況，先完成撤離路線與聯絡名冊確認。
276,大東田露營地,新竹縣,五峰鄉,24.644741,121.155756,48.7,加強監測,196.31243413808912,621.3,14.01,333.2,西北,0.0,27.3,224.56322738029584,擃,2137.3583233245736,銝,2137.3583233245736,中,9564.613402588504,1020豪雨,違反相關法規露營場,不符合土地管制法規,是,高,維持每 30–60 分鐘巡查邊坡、溪水與道路狀況，準備雨具、照明與通訊設備。,【露營安全提醒】新竹縣五峰鄉「大東田露營地」目前為「加強監測」。主因：距土石流影響範圍 225 m、法規狀態需注意。請持續注意雨勢、溪水與邊坡狀況，先完成撤離路線與聯絡名冊確認。
277,四季露營區,新竹縣,五峰鄉,24.587027,121.092564,48.6,加強監測,241.532038131565,1153.22,44.47,136.5,東南,86.2,97.0,1126.443821386909,蝥閫撖,2407.4856847734045,銝,2455.8351577518342,高,8918.206411831981,0728豪雨,違反相關法規露營場,區域計畫法,是,高,維持每 30–60 分鐘巡查邊坡、溪水與道路狀況，準備雨具、照明與通訊設備。,【露營安全提醒】新竹縣五峰鄉「四季露營區」目前為「加強監測」。主因：雨量偏高 242 mm/24h、DEM坡度 44°、坡向 東南，迎風暴露較高、法規狀態需注意。請持續注意雨勢、溪水與邊坡狀況，先完成撤離路線與聯絡名冊確認。
278,斯卡嵐慕露營區,新竹縣,五峰鄉,24.613169,121.091825,48.6,加強監測,221.03730660244827,858.03,13.19,115.6,東南,96.3,46.9,983.4429864869444,雿,713.6152233108758,擃,713.6152233108758,高,6627.698328578862,1020豪雨,違反相關法規露營場,不符合土地管制法規,是,高,維持每 30–60 分鐘巡查邊坡、溪水與道路狀況，準備雨具、照明與通訊設備。,【露營安全提醒】新竹縣五峰鄉「斯卡嵐慕露營區」目前為「加強監測」。主因：雨量偏高 221 mm/24h、坡向 東南，迎風暴露較高、法規狀態需注意。請持續注意雨勢、溪水與邊坡狀況，先完成撤離路線與聯絡名冊確認。
279,紅毛印象露營窩,苗栗縣,南庄鄉,24.54175,120.97533,48.6,加強監測,197.3880160353808,504.38,13.43,356.0,北,0.0,26.2,121.86646446743794,銝,11549.1082732757,銝,11567.279664879929,中,6491.124542908964,0728豪雨,違反相關法規露營場,不符合土地管制法規,是,高,維持每 30–60 分鐘巡查邊坡、溪水與道路狀況，準備雨具、照明與通訊設備。,【露營安全提醒】苗栗縣南庄鄉「紅毛印象露營窩」目前為「加強監測」。主因：距土石流影響範圍 122 m、法規狀態需注意。請持續注意雨勢、溪水與邊坡狀況，先完成撤離路線與聯絡名冊確認。
280,玥納露營區,高雄市,茂林區,22.9090424615732,120.722606752711,48.6,加強監測,190.3935061305729,540.56,26.41,320.7,西北,0.0,51.5,429.4685634408756,銝,3845.869139492727,銝,4341.149517523443,中,1514.792475242083,樺加沙颱風,違反相關法規露營場,區域計畫法,是,高,維持每 30–60 分鐘巡查邊坡、溪水與道路狀況，準備雨具、照明與通訊設備。,【露營安全提醒】高雄市茂林區「玥納露營區」目前為「加強監測」。主因：距土石流影響範圍 429 m、法規狀態需注意。請持續注意雨勢、溪水與邊坡狀況，先完成撤離路線與聯絡名冊確認。
281,沐嵐語 Camping 露營區,苗栗縣,泰安鄉,24.429006,120.910023,48.6,加強監測,187.37707745568807,648.47,14.09,244.7,西南,0.0,27.5,1116.6846047514978,擃,379.071838947221,銝,563.8653109674532,中,8674.839882707365,0728豪雨,違反相關法規露營場,不符合土地管制法規,是,高,維持每 30–60 分鐘巡查邊坡、溪水與道路狀況，準備雨具、照明與通訊設備。,【露營安全提醒】苗栗縣泰安鄉「沐嵐語 Camping 露營區」目前為「加強監測」。主因：鄰近崩塌/警戒範圍、法規狀態需注意。請持續注意雨勢、溪水與邊坡狀況，先完成撤離路線與聯絡名冊確認。
282,艾莉絲森林露營區,高雄市,桃源區,23.0647336079488,120.718647167303,48.5,加強監測,236.4559731556724,1216.33,32.99,81.2,東,67.7,79.2,2762.5386843184,擃,2240.9536002137907,擃,1412.8406794679954,高,537.0642987800778,0728豪雨,違反相關法規露營場,區域計畫法,是,高,維持每 30–60 分鐘巡查邊坡、溪水與道路狀況，準備雨具、照明與通訊設備。,【露營安全提醒】高雄市桃源區「艾莉絲森林露營區」目前為「加強監測」。主因：雨量偏高 236 mm/24h、DEM坡度 33°、法規狀態需注意。請持續注意雨勢、溪水與邊坡狀況，先完成撤離路線與聯絡名冊確認。
283,樸真園露營區,新竹縣,關西鎮,24.757919,121.242063,48.5,加強監測,199.1796464123524,436.6,22.01,21.3,北,17.8,46.8,346.9832959045148,擃,9163.424504647588,擃,9283.02862292331,高,11319.619175105836,0728豪雨,違反相關法規露營場,區域計畫法,是,高,維持每 30–60 分鐘巡查邊坡、溪水與道路狀況，準備雨具、照明與通訊設備。,【露營安全提醒】新竹縣關西鎮「樸真園露營區」目前為「加強監測」。主因：距土石流影響範圍 347 m、法規狀態需注意。請持續注意雨勢、溪水與邊坡狀況，先完成撤離路線與聯絡名冊確認。
284,露也楓情 (羽楓區),苗栗縣,泰安鄉,24.4300848424447,120.914624587526,48.5,加強監測,184.061621341876,750.95,12.07,211.7,西南,23.6,28.7,1279.605200831308,擃,480.47662330524383,銝,480.47662330524383,中,8809.489779905654,0728豪雨,違反相關法規露營場,不符合土地管制法規,是,高,維持每 30–60 分鐘巡查邊坡、溪水與道路狀況，準備雨具、照明與通訊設備。,【露營安全提醒】苗栗縣泰安鄉「露也楓情 (羽楓區)」目前為「加強監測」。主因：鄰近崩塌/警戒範圍、法規狀態需注意。請持續注意雨勢、溪水與邊坡狀況，先完成撤離路線與聯絡名冊確認。
